$GPGGA,123433.000,5356.21442,N,02734.85952,E,1,04,07.2,251.9,M,26.0,M,,*67
$GPRMC,123434.000,A,5356.21440,N,02734.85946,E,00.00,252.7,290508,,,A*6B
$PORZD,A,022.8*34
$GPGSA,A,3,23,13,07,25,,,,,,,,,,,,,,,,,,,,,09.2,07.2,05.7*0D
$GPGGA,123434.000,5356.21444,N,02734.85947,E,1,04,07.2,251.9,M,26.0,M,,*62
$GPRMC,123435.000,A,5356.21440,N,02734.85945,E,00.00,252.7,290508,,,A*69
$PORZD,A,022.8*34
$GPGSA,A,3,23,13,07,25,,,,,,,,,,,,,,,,,,,,,09.2,07.2,05.7*0D
$GPGGA,123435.000,5356.21444,N,02734.85946,E,1,04,07.2,251.9,M,26.0,M,,*62
$GPRMC,123436.000,A,5356.21439,N,02734.85943,E,00.00,252.7,290508,,,A*62
$PORZD,A,022.9*35
$GPGSA,A,3,23,13,07,25,,,,,,,,,,,,,,,,,,,,,09.2,07.2,05.7*0D
$GPGGA,123436.000,5356.21444,N,02734.85946,E,1,04,07.2,251.9,M,26.0,M,,*61
$GPRMC,123437.000,A,5356.21443,N,02734.85944,E,00.00,252.7,290508,,,A*69
$PORZD,A,022.9*35
$GPGSA,A,3,23,13,07,25,,,,,,,,,,,,,,,,,,,,,09.2,07.2,05.7*0D
$GPGGA,123437.000,5356.21447,N,02734.85947,E,1,04,07.2,251.8,M,26.0,M,,*63
$GPRMC,123438.000,A,5356.21444,N,02734.85943,E,00.00,252.7,290508,,,A*66
$PORZD,A,022.9*35
$GPGSV,3,1,11,02,13,248,,03,11,066,,07,76,087,36,13,48,101,50*71
$GPGSV,3,2,11,23,12,106,46,25,56,069,39,27,84,110,31,33,17,229,*7A
$GPGSV,3,3,11,37,28,187,,39,28,183,,44,20,137,*44
$GPGSA,A,3,23,13,07,25,,,,,,,,,,,,,,,,,,,,,09.2,07.2,05.7*0D
$GPGGA,123438.000,5356.21448,N,02734.85946,E,1,04,07.2,251.8,M,26.0,M,,*62
$GPRMC,123439.000,A,5356.21445,N,02734.85942,E,00.00,252.7,290508,,,A*67
$PORZD,A,022.9*35
$GPGSA,A,3,23,13,07,25,,,,,,,,,,,,,,,,,,,,,09.2,07.2,05.7*0D
$GPGGA,123439.000,5356.21450,N,02734.85946,E,1,04,07.2,251.8,M,26.0,M,,*6A
$GPRMC,123440.000,A,5356.21447,N,02734.85944,E,00.00,252.7,290508,,,A*6D
$PORZD,A,022.8*34
$GPGSA,A,3,23,13,07,25,,,,,,,,,,,,,,,,,,,,,09.2,07.2,05.7*0D
$GPGGA,123440.000,5356.21449,N,02734.85945,E,1,04,07.2,251.8,M,26.0,M,,*6F
$GPRMC,123441.000,A,5356.21446,N,02734.85940,E,00.00,252.7,290508,,,A*69
$PORZD,A,022.9*35
$GPGSA,A,3,23,13,07,25,,,,,,,,,,,,,,,,,,,,,09.2,07.2,05.7*0D
$GPGGA,123441.000,5356.21449,N,02734.85942,E,1,04,07.2,251.8,M,26.0,M,,*69
$GPRMC,123442.000,A,5356.21445,N,02734.85940,E,00.00,252.7,290508,,,A*69
$PORZD,A,022.9*35
$GPGSA,A,3,23,13,07,25,,,,,,,,,,,,,,,,,,,,,09.2,07.2,05.7*0D
$GPGGA,123442.000,5356.21447,N,02734.85942,E,1,04,07.2,251.8,M,26.0,M,,*64
$GPRMC,123443.000,A,5356.21444,N,02734.85939,E,00.00,252.7,290508,,,A*67
$PORZD,A,022.9*35
$GPGSA,A,3,23,13,07,25,,,,,,,,,,,,,,,,,,,,,09.2,07.2,05.7*0D
$GPGGA,123443.000,5356.21448,N,02734.85942,E,1,04,07.2,251.8,M,26.0,M,,*6A
$GPRMC,123444.000,A,5356.21446,N,02734.85940,E,00.00,252.7,290508,,,A*6C
$PORZD,A,022.8*34
$GPGSV,3,1,11,02,13,248,,03,11,066,,07,76,087,35,13,48,101,50*72
$GPGSV,3,2,11,23,12,106,47,25,56,069,38,27,84,110,31,33,17,229,*7A
$GPGSV,3,3,11,37,28,187,,39,28,183,,44,20,137,*44
$GPGSA,A,3,23,13,07,25,,,,,,,,,,,,,,,,,,,,,09.2,07.2,05.7*0D
$GPGGA,123444.000,5356.21450,N,02734.85942,E,1,04,07.2,251.8,M,26.0,M,,*64
$GPRMC,123445.000,A,5356.21446,N,02734.85938,E,00.00,252.7,290508,,,A*62
$PORZD,A,022.8*34
$GPGSA,A,3,23,13,07,25,,,,,,,,,,,,,,,,,,,,,09.2,07.2,05.7*0D
$GPGGA,123445.000,5356.21450,N,02734.85941,E,1,04,07.2,251.8,M,26.0,M,,*66
$GPRMC,123446.000,A,5356.21447,N,02734.85936,E,00.00,252.7,290508,,,A*6E
$PORZD,A,022.8*34
$GPGSA,A,3,23,13,07,25,,,,,,,,,,,,,,,,,,,,,09.2,07.2,05.7*0D
$GPGGA,123446.000,5356.21451,N,02734.85943,E,1,04,07.2,251.9,M,26.0,M,,*67
$GPRMC,123447.000,A,5356.21448,N,02734.85938,E,00.00,252.7,290508,,,A*6E
$PORZD,A,022.8*34
$GPGSA,A,3,23,13,07,25,,,,,,,,,,,,,,,,,,,,,09.2,07.2,05.7*0D
$GPGGA,123447.000,5356.21452,N,02734.85942,E,1,04,07.2,251.9,M,26.0,M,,*64
$GPRMC,123448.000,A,5356.21449,N,02734.85942,E,00.00,252.7,290508,,,A*6D
$PORZD,A,022.9*35
$GPGSA,A,3,23,13,07,25,,,,,,,,,,,,,,,,,,,,,09.1,07.2,05.7*0E
$GPGGA,123448.000,5356.21453,N,02734.85943,E,1,04,07.2,251.9,M,26.0,M,,*6B
$GPRMC,123449.000,A,5356.21448,N,02734.85937,E,00.00,252.7,290508,,,A*6F
$PORZD,A,022.9*35
$GPGSA,A,3,23,13,07,25,,,,,,,,,,,,,,,,,,,,,09.1,07.2,05.7*0E
$GPGGA,123449.000,5356.21453,N,02734.85941,E,1,04,07.2,251.9,M,26.0,M,,*68
$GPRMC,123450.000,A,5356.21449,N,02734.85935,E,00.00,252.7,290508,,,A*64
$PORZD,A,022.9*35
$GPGSV,3,1,11,02,13,248,,03,11,066,,07,76,087,35,13,48,101,51*73
$GPGSV,3,2,11,23,12,106,45,25,56,069,38,27,84,110,31,33,17,229,*78
$GPGSV,3,3,11,37,28,187,,39,28,183,,44,20,137,*44
$GPGSA,A,3,23,13,07,25,,,,,,,,,,,,,,,,,,,,,09.1,07.2,05.7*0E
$GPGGA,123450.000,5356.21454,N,02734.85939,E,1,04,07.2,251.9,M,26.0,M,,*68
$GPRMC,123451.000,A,5356.21452,N,02734.85936,E,00.00,252.7,290508,,,A*6C
$PORZD,A,022.9*35
$GPGSA,A,3,23,13,07,25,,,,,,,,,,,,,,,,,,,,,09.1,07.2,05.6*0F
$GPGGA,123451.000,5356.21456,N,02734.85939,E,1,04,07.2,251.9,M,26.0,M,,*6B
$GPRMC,123452.000,A,5356.21451,N,02734.85935,E,00.00,252.7,290508,,,A*6F
$PORZD,A,022.9*35
$GPGSA,A,3,23,13,07,25,,,,,,,,,,,,,,,,,,,,,09.1,07.2,05.6*0F
$GPGGA,123452.000,5356.21456,N,02734.85938,E,1,04,07.2,251.9,M,26.0,M,,*69
$GPRMC,123453.000,A,5356.21453,N,02734.85933,E,00.00,252.7,290508,,,A*6A
$PORZD,A,022.8*34
$GPGSA,A,3,23,13,07,25,,,,,,,,,,,,,,,,,,,,,09.1,07.2,05.6*0F
$GPGGA,123453.000,5356.21458,N,02734.85934,E,1,04,07.2,251.8,M,26.0,M,,*6B
$GPRMC,123454.000,A,5356.21455,N,02734.85930,E,00.00,252.7,290508,,,A*68
$PORZD,A,022.8*34
$GPGSA,A,3,23,13,07,25,,,,,,,,,,,,,,,,,,,,,09.1,07.2,05.6*0F
$GPGGA,123454.000,5356.21459,N,02734.85931,E,1,04,07.2,251.7,M,26.0,M,,*67
$GPRMC,123455.000,A,5356.21455,N,02734.85927,E,00.00,252.7,290508,,,A*6F
$PORZD,A,022.8*34
$GPGSA,A,3,23,13,07,25,,,,,,,,,,,,,,,,,,,,,09.1,07.2,05.6*0F
$GPGGA,123455.000,5356.21461,N,02734.85930,E,1,04,07.2,251.6,M,26.0,M,,*6D
$GPRMC,123456.000,A,5356.21458,N,02734.85926,E,00.00,252.7,290508,,,A*60
$PORZD,A,022.8*34
$GPGSV,3,1,11,02,13,247,,03,11,065,18,07,76,087,37,13,48,101,51*74
$GPGSV,3,2,11,23,12,106,45,25,55,069,38,27,83,108,32,33,17,229,*76
$GPGSV,3,3,11,37,28,187,,39,28,183,,44,20,137,*44
$GPGSA,A,3,23,13,07,25,,,,,,,,,,,,,,,,,,,,,09.1,07.2,05.6*0F
$GPGGA,123456.000,5356.21463,N,02734.85930,E,1,04,07.2,251.6,M,26.0,M,,*6C
$GPRMC,123457.000,A,5356.21458,N,02734.85925,E,00.00,252.7,290508,,,A*62
$PORZD,A,022.9*35
$GPGSA,A,3,23,13,07,25,,,,,,,,,,,,,,,,,,,,,09.1,07.2,05.6*0F
$GPGGA,123457.000,5356.21464,N,02734.85931,E,1,04,07.2,251.5,M,26.0,M,,*68
$GPRMC,123458.000,A,5356.21463,N,02734.85930,E,00.00,252.7,290508,,,A*61
$PORZD,A,022.9*35
$GPGSA,A,3,23,13,07,25,,,,,,,,,,,,,,,,,,,,,09.1,07.2,05.6*0F
$GPGGA,123458.000,5356.21469,N,02734.85938,E,1,04,07.2,251.5,M,26.0,M,,*63
$GPRMC,123459.000,A,5356.21465,N,02734.85933,E,00.00,252.7,290508,,,A*65
$PORZD,A,022.8*34
$GPGSA,A,3,23,13,07,25,,,,,,,,,,,,,,,,,,,,,09.1,07.2,05.6*0F
$GPGGA,123459.000,5356.21596,N,02734.86645,E,1,05,06.0,255.7,M,26.0,M,,*61
$GPRMC,123500.000,A,5356.21592,N,02734.86643,E,00.00,252.7,290508,,,A*6A
$PORZD,A,021.5*3A
$GPGSA,A,3,27,23,13,07,25,,,,,,,,,,,,,,,,,,,,07.9,06.0,05.2*0B
$GPGGA,123500.000,5356.21592,N,02734.86641,E,1,05,06.0,255.7,M,26.0,M,,*6C
$GPRMC,123501.000,A,5356.21589,N,02734.86639,E,00.00,252.7,290508,,,A*6C
$PORZD,A,021.5*3A
$GPGSA,A,3,27,23,13,07,25,,,,,,,,,,,,,,,,,,,,07.9,06.0,05.2*0B
$GPGGA,123501.000,5356.21589,N,02734.86638,E,1,05,06.0,255.8,M,26.0,M,,*66
$GPRMC,123502.000,A,5356.21587,N,02734.86636,E,00.00,252.7,290508,,,A*6E
$PORZD,A,021.4*3B
$GPGSV,3,1,11,02,13,247,,03,11,065,18,07,76,087,36,13,48,101,50*74
$GPGSV,3,2,11,23,12,106,46,25,55,069,38,27,83,108,31,33,17,229,*76
$GPGSV,3,3,11,37,28,187,,39,28,183,,44,20,137,*44
$GPGSA,A,3,27,23,13,07,25,,,,,,,,,,,,,,,,,,,,07.9,06.0,05.2*0B
$GPGGA,123502.000,5356.21588,N,02734.86634,E,1,05,06.0,255.8,M,26.0,M,,*68
$GPRMC,123503.000,A,5356.21585,N,02734.86631,E,00.00,252.7,290508,,,A*6A
$PORZD,A,021.4*3B
$GPGSA,A,3,27,23,13,07,25,,,,,,,,,,,,,,,,,,,,07.9,06.0,05.2*0B
$GPGGA,123503.000,5356.21577,N,02734.86569,E,1,05,06.0,255.4,M,26.0,M,,*6E
$GPRMC,123504.000,A,5356.21573,N,02734.86567,E,00.00,252.7,290508,,,A*64
$PORZD,A,022.2*3E
$GPGSA,A,3,27,23,13,07,25,,,,,,,,,,,,,,,,,,,,07.9,06.0,05.2*0B
$GPGGA,123504.000,5356.21576,N,02734.86571,E,1,05,06.0,255.4,M,26.0,M,,*61
$GPRMC,123505.000,A,5356.21575,N,02734.86568,E,00.00,252.7,290508,,,A*6C
$PORZD,A,021.4*3B
$GPGSA,A,3,27,23,13,07,25,,,,,,,,,,,,,,,,,,,,07.9,06.0,05.2*0B
$GPGGA,123505.000,5356.21576,N,02734.86569,E,1,05,06.0,255.5,M,26.0,M,,*68
$GPRMC,123506.000,A,5356.21571,N,02734.86567,E,00.00,252.7,290508,,,A*64
$PORZD,A,021.4*3B
$GPGSA,A,3,27,23,13,07,25,,,,,,,,,,,,,,,,,,,,07.9,06.0,05.2*0B
$GPGGA,123506.000,5356.21566,N,02734.86512,E,1,05,06.0,255.1,M,26.0,M,,*62
$GPRMC,123507.000,A,5356.21562,N,02734.86508,E,00.00,252.7,290508,,,A*6E
$PORZD,A,022.2*3E
$GPGSA,A,3,27,23,13,07,25,,,,,,,,,,,,,,,,,,,,07.9,06.0,05.2*0B
$GPGGA,123507.000,5356.21566,N,02734.86514,E,1,05,06.0,255.1,M,26.0,M,,*65
$GPRMC,123508.000,A,5356.21564,N,02734.86514,E,00.00,252.7,290508,,,A*6A
$PORZD,A,021.4*3B
$GPGSV,3,1,11,02,13,247,,03,11,065,,07,76,087,36,13,48,101,51*7C
$GPGSV,3,2,11,23,12,106,45,25,55,069,38,27,83,108,31,33,17,229,*75
$GPGSV,3,3,11,37,28,187,,39,28,183,,44,20,137,*44
$GPGSA,A,3,27,23,13,07,25,,,,,,,,,,,,,,,,,,,,07.9,06.0,05.2*0B
$GPGGA,123508.000,5356.21568,N,02734.86517,E,1,05,06.0,255.2,M,26.0,M,,*64
$GPRMC,123509.000,A,5356.21565,N,02734.86514,E,00.00,252.7,290508,,,A*6A
$PORZD,A,021.4*3B
$GPGSA,A,3,27,23,13,07,25,,,,,,,,,,,,,,,,,,,,07.9,06.0,05.2*0B
$GPGGA,123509.000,5356.21569,N,02734.86517,E,1,05,06.0,255.1,M,26.0,M,,*67
$GPRMC,123510.000,A,5356.21566,N,02734.86516,E,00.00,252.7,290508,,,A*63
$PORZD,A,021.4*3B
$GPGSA,A,3,27,23,13,07,25,,,,,,,,,,,,,,,,,,,,07.9,06.0,05.2*0B
$GPGGA,123510.000,5356.21569,N,02734.86520,E,1,05,06.0,255.2,M,26.0,M,,*68
$GPRMC,123511.000,A,5356.21565,N,02734.86519,E,00.00,252.7,290508,,,A*6E
$PORZD,A,021.4*3B
$GPGSA,A,3,27,23,13,07,25,,,,,,,,,,,,,,,,,,,,07.9,06.0,05.2*0B
$GPGGA,123511.000,5356.21561,N,02734.86474,E,1,05,06.0,254.9,M,26.0,M,,*6B
$GPRMC,123512.000,A,5356.21558,N,02734.86470,E,00.00,252.7,290508,,,A*6D
$PORZD,A,022.2*3E
$GPGSA,A,3,27,23,13,07,25,,,,,,,,,,,,,,,,,,,,07.9,06.0,05.2*0B
$GPGGA,123512.000,5356.21561,N,02734.86478,E,1,05,06.0,254.9,M,26.0,M,,*64
$GPRMC,123513.000,A,5356.21557,N,02734.86477,E,00.00,252.7,290508,,,A*64
$PORZD,A,021.4*3B
$GPGSA,A,3,27,23,13,07,25,,,,,,,,,,,,,,,,,,,,07.9,06.0,05.2*0B
$GPGGA,123513.000,5356.21553,N,02734.86441,E,1,05,06.0,254.7,M,26.0,M,,*60
$GPRMC,123514.000,A,5356.21551,N,02734.86438,E,00.00,252.7,290508,,,A*6E
$PORZD,A,022.3*3F
$GPGSV,3,1,11,02,13,247,,03,11,065,,07,76,087,37,13,48,101,51*7D
$GPGSV,3,2,11,23,12,106,46,25,55,069,38,27,83,108,30,33,17,229,*77
$GPGSV,3,3,11,37,28,187,,39,28,183,,44,20,137,*44
$GPGSA,A,3,27,23,13,07,25,,,,,,,,,,,,,,,,,,,,07.9,06.0,05.2*0B
$GPGGA,123514.000,5356.21548,N,02734.86407,E,1,05,06.0,254.4,M,26.0,M,,*6C
$GPRMC,123515.000,A,5356.21544,N,02734.86403,E,00.00,252.7,290508,,,A*63
$PORZD,A,022.4*38
$GPGSA,A,3,27,23,13,07,25,,,,,,,,,,,,,,,,,,,,07.9,06.0,05.2*0B
$GPGGA,123515.000,5356.21549,N,02734.86418,E,1,05,06.0,254.5,M,26.0,M,,*63
$GPRMC,123516.000,A,5356.21546,N,02734.86416,E,00.00,252.7,290508,,,A*66
$PORZD,A,021.6*39
$GPGSA,A,3,27,23,13,07,25,,,,,,,,,,,,,,,,,,,,07.9,06.0,05.2*0B
$GPGGA,123516.000,5356.21543,N,02734.86390,E,1,05,06.0,254.3,M,26.0,M,,*6B
$GPRMC,123517.000,A,5356.21540,N,02734.86387,E,00.00,252.7,290508,,,A*6E
$PORZD,A,022.5*39
$GPGSA,A,3,27,23,13,07,25,,,,,,,,,,,,,,,,,,,,07.9,06.0,05.2*0B
$GPGGA,123517.000,5356.21539,N,02734.86365,E,1,05,06.0,254.2,M,26.0,M,,*6C
$GPRMC,123518.000,A,5356.21536,N,02734.86362,E,00.00,252.7,290508,,,A*6B
$PORZD,A,022.5*39
$GPGSA,A,3,27,23,13,07,25,,,,,,,,,,,,,,,,,,,,07.9,06.0,05.2*0B
$GPGGA,123518.000,5356.21540,N,02734.86384,E,1,05,06.0,254.3,M,26.0,M,,*63
$GPRMC,123519.000,A,5356.21536,N,02734.86384,E,00.00,252.7,290508,,,A*62
$PORZD,A,021.6*39
$GPGSA,A,3,27,23,13,07,25,,,,,,,,,,,,,,,,,,,,07.9,06.0,05.2*0B
$GPGGA,123519.000,5356.21534,N,02734.86366,E,1,05,06.0,254.2,M,26.0,M,,*6C
$GPRMC,123520.000,A,5356.21532,N,02734.86362,E,00.00,252.7,290508,,,A*64
$PORZD,A,022.5*39
$GPGSV,3,1,11,02,13,247,,03,11,065,,07,76,087,36,13,48,101,50*7D
$GPGSV,3,2,11,23,12,106,47,25,55,069,39,27,83,108,31,33,17,229,*76
$GPGSV,3,3,11,37,28,187,,39,28,183,,44,20,137,*44
$GPGSA,A,3,27,23,13,07,25,,,,,,,,,,,,,,,,,,,,07.9,06.0,05.2*0B
$GPGGA,123520.000,5356.21536,N,02734.86384,E,1,05,06.0,254.3,M,26.0,M,,*69
$GPRMC,123521.000,A,5356.21532,N,02734.86385,E,00.00,252.7,290508,,,A*6C
$PORZD,A,021.6*39
$GPGSA,A,3,27,23,13,07,25,,,,,,,,,,,,,,,,,,,,07.9,06.0,05.2*0B
$GPGGA,123521.000,5356.21534,N,02734.86399,E,1,05,05.9,254.5,M,26.0,M,,*6A
$GPRMC,123522.000,A,5356.21532,N,02734.86395,E,00.00,252.7,290508,,,A*6E
$PORZD,A,021.6*39
$GPGSA,A,3,27,23,13,07,25,,,,,,,,,,,,,,,,,,,,07.9,05.9,05.2*01
$GPGGA,123522.000,5356.21532,N,02734.86407,E,1,05,05.9,254.6,M,26.0,M,,*6C
$GPRMC,123523.000,A,5356.21529,N,02734.86407,E,00.00,252.7,290508,,,A*69
$PORZD,A,021.5*3A
$GPGSA,A,3,27,23,13,07,25,,,,,,,,,,,,,,,,,,,,07.9,05.9,05.2*01
$GPGGA,123523.000,5356.21524,N,02734.86380,E,1,05,05.9,254.4,M,26.0,M,,*60
$GPRMC,123524.000,A,5356.21521,N,02734.86378,E,00.00,252.7,290508,,,A*69
$PORZD,A,022.5*39
$GPGSA,A,3,27,23,13,07,25,,,,,,,,,,,,,,,,,,,,07.9,05.9,05.1*02
$GPGGA,123524.000,5356.21520,N,02734.86384,E,1,05,05.9,254.4,M,26.0,M,,*67
$GPRMC,123525.000,A,5356.21516,N,02734.86382,E,00.00,252.7,290508,,,A*69
$PORZD,A,021.6*39
$GPGSA,A,3,27,23,13,07,25,,,,,,,,,,,,,,,,,,,,07.9,05.9,05.1*02
$GPGGA,123525.000,5356.21516,N,02734.86385,E,1,05,05.9,254.4,M,26.0,M,,*62
$GPRMC,123526.000,A,5356.21514,N,02734.86386,E,00.00,252.7,290508,,,A*6C
$PORZD,A,021.6*39
$GPGSV,3,1,12,02,12,247,,03,11,065,,07,76,086,37,13,48,101,51*7E
$GPGSV,3,2,12,23,12,106,45,25,55,069,38,27,83,107,30,28,05,181,40*74
$GPGSV,3,3,12,33,17,229,,37,28,187,,39,28,183,,44,20,137,*78
$GPGSA,A,3,27,23,13,07,25,,,,,,,,,,,,,,,,,,,,07.9,05.9,05.1*02
$GPGGA,123526.000,5356.21510,N,02734.86359,E,1,05,05.9,254.3,M,26.0,M,,*61
$GPRMC,123527.000,A,5356.21507,N,02734.86356,E,00.00,252.7,290508,,,A*62
$PORZD,A,022.5*39
$GPGSA,A,3,27,23,13,07,25,,,,,,,,,,,,,,,,,,,,07.9,05.9,05.1*02
$GPGGA,123527.000,5356.21503,N,02734.86331,E,1,05,05.9,254.1,M,26.0,M,,*6E
$GPRMC,123528.000,A,5356.21500,N,02734.86330,E,00.00,252.7,290508,,,A*6A
$PORZD,A,022.5*39
$GPGSA,A,3,27,23,13,07,25,,,,,,,,,,,,,,,,,,,,07.9,05.9,05.1*02
$GPGGA,123528.000,5356.21500,N,02734.86332,E,1,06,04.9,254.2,M,26.0,M,,*60
$GPRMC,123529.000,A,5356.21497,N,02734.86332,E,00.00,252.7,290508,,,A*66
$PORZD,A,018.0*35
$GPGSA,A,3,28,27,23,13,07,25,,,,,,,,,,,,,,,,,,,06.4,04.9,04.1*04
$GPGGA,123529.000,5356.21498,N,02734.86331,E,1,06,04.9,254.2,M,26.0,M,,*62
$GPRMC,123530.000,A,5356.21496,N,02734.86329,E,00.00,252.7,290508,,,A*65
$PORZD,A,017.4*3E
$GPGSA,A,3,28,27,23,13,07,25,,,,,,,,,,,,,,,,,,,06.4,04.9,04.1*04
$GPGGA,123530.000,5356.21496,N,02734.86329,E,1,06,04.9,254.2,M,26.0,M,,*6D
$GPRMC,123531.000,A,5356.21494,N,02734.86327,E,00.00,252.7,290508,,,A*68
$PORZD,A,017.0*3A
$GPGSA,A,3,28,27,23,13,07,25,,,,,,,,,,,,,,,,,,,06.4,04.9,04.1*04
$GPGGA,123531.000,5356.21498,N,02734.86346,E,1,06,04.9,254.2,M,26.0,M,,*6B
$GPRMC,123532.000,A,5356.21496,N,02734.86347,E,00.00,252.7,290508,,,A*6F
$PORZD,A,016.6*3D
$GPGSV,3,1,12,02,12,247,,03,11,065,,07,76,086,36,13,48,101,51*7F
$GPGSV,3,2,12,23,12,106,45,25,55,069,38,27,83,107,29,28,05,181,44*78
$GPGSV,3,3,12,33,17,229,,37,28,187,,39,28,183,,44,20,137,*78
$GPGSA,A,3,28,27,23,13,07,25,,,,,,,,,,,,,,,,,,,06.4,04.9,04.1*04
$GPGGA,123532.000,5356.21499,N,02734.86359,E,1,06,04.9,254.2,M,26.0,M,,*67
$GPRMC,123533.000,A,5356.21497,N,02734.86358,E,00.00,252.7,290508,,,A*61
$PORZD,A,016.5*3E
$GPGSA,A,3,28,27,23,13,07,25,,,,,,,,,,,,,,,,,,,06.4,04.9,04.1*04
$GPGGA,123533.000,5356.21499,N,02734.86368,E,1,06,04.9,254.2,M,26.0,M,,*64
$GPRMC,123534.000,A,5356.21497,N,02734.86369,E,00.00,252.7,290508,,,A*64
$PORZD,A,016.5*3E
$GPGSA,A,3,28,27,23,13,07,25,,,,,,,,,,,,,,,,,,,06.4,04.9,04.1*04
$GPGGA,123534.000,5356.21499,N,02734.86376,E,1,06,04.9,254.2,M,26.0,M,,*6C
$GPRMC,123535.000,A,5356.21497,N,02734.86375,E,00.00,252.7,290508,,,A*68
$PORZD,A,016.4*3F
$GPGSA,A,3,28,27,23,13,07,25,,,,,,,,,,,,,,,,,,,06.4,04.9,04.1*04
$GPGGA,123535.000,5356.21499,N,02734.86381,E,1,06,04.9,254.2,M,26.0,M,,*65
$GPRMC,123536.000,A,5356.21495,N,02734.86381,E,00.00,252.7,290508,,,A*62
$PORZD,A,016.3*38
$GPGSA,A,3,28,27,23,13,07,25,,,,,,,,,,,,,,,,,,,06.4,04.9,04.1*04
$GPGGA,123536.000,5356.21498,N,02734.86385,E,1,06,04.9,254.3,M,26.0,M,,*62
$GPRMC,123537.000,A,5356.21496,N,02734.86386,E,00.00,252.7,290508,,,A*67
$PORZD,A,016.3*38
$GPGSA,A,3,28,27,23,13,07,25,,,,,,,,,,,,,,,,,,,06.4,04.9,04.1*04
$GPGGA,123537.000,5356.21498,N,02734.86387,E,1,06,04.9,254.3,M,26.0,M,,*61
$GPRMC,123538.000,A,5356.21497,N,02734.86386,E,00.00,252.7,290508,,,A*69
$PORZD,A,016.2*39
$GPGSV,3,1,12,02,12,247,,03,11,065,,07,76,086,36,13,48,101,50*7E
$GPGSV,3,2,12,23,12,106,46,25,55,069,38,27,83,107,29,28,05,181,45*7A
$GPGSV,3,3,12,33,17,229,,37,28,187,,39,28,183,,44,20,137,*78
$GPGSA,A,3,28,27,23,13,07,25,,,,,,,,,,,,,,,,,,,06.4,04.9,04.1*04
$GPGGA,123538.000,5356.21499,N,02734.86387,E,1,06,04.9,254.3,M,26.0,M,,*6F
$GPRMC,123539.000,A,5356.21496,N,02734.86387,E,00.00,252.7,290508,,,A*68
$PORZD,A,016.2*39
$GPGSA,A,3,28,27,23,13,07,25,,,,,,,,,,,,,,,,,,,06.4,04.9,04.1*04
$GPGGA,123539.000,5356.21499,N,02734.86387,E,1,06,04.9,254.3,M,26.0,M,,*6E
$GPRMC,123540.000,A,5356.21497,N,02734.86387,E,00.00,252.7,290508,,,A*67
$PORZD,A,016.1*3A
$GPGSA,A,3,28,27,23,13,07,25,,,,,,,,,,,,,,,,,,,06.4,04.9,04.1*04
$GPGGA,123540.000,5356.21500,N,02734.86385,E,1,06,04.9,254.3,M,26.0,M,,*63
$GPRMC,123541.000,A,5356.21498,N,02734.86385,E,00.00,252.7,290508,,,A*6B
$PORZD,A,016.1*3A
$GPGSA,A,3,28,27,23,13,07,25,,,,,,,,,,,,,,,,,,,06.4,04.9,04.1*04
$GPGGA,123541.000,5356.21499,N,02734.86371,E,1,06,04.9,254.4,M,26.0,M,,*6F
$GPRMC,123542.000,A,5356.21496,N,02734.86371,E,00.00,252.7,290508,,,A*6D
$PORZD,A,016.3*38
$GPGSA,A,3,28,27,23,13,07,25,,,,,,,,,,,,,,,,,,,06.4,04.9,04.1*04
$GPGGA,123542.000,5356.21499,N,02734.86359,E,1,06,04.9,254.4,M,26.0,M,,*66
$GPRMC,123543.000,A,5356.21495,N,02734.86360,E,00.00,252.7,290508,,,A*6F
$PORZD,A,016.2*39
$GPGSA,A,3,28,27,23,13,07,25,,,,,,,,,,,,,,,,,,,06.4,04.9,04.1*04
$GPGGA,123543.000,5356.21499,N,02734.86349,E,1,06,04.9,254.4,M,26.0,M,,*66
$GPRMC,123544.000,A,5356.21498,N,02734.86347,E,00.00,252.7,290508,,,A*60
$PORZD,A,016.2*39
$GPGSV,3,1,12,02,12,247,,03,11,065,,07,76,086,35,13,48,101,50*7D
$GPGSV,3,2,12,23,12,106,46,25,55,069,38,27,83,107,29,28,05,181,45*7A
$GPGSV,3,3,12,33,17,229,,37,28,187,,39,28,183,,44,20,137,*78
$GPGSA,A,3,28,27,23,13,07,25,,,,,,,,,,,,,,,,,,,06.3,04.9,04.1*03
$GPGGA,123544.000,5356.21501,N,02734.86338,E,1,06,04.9,254.4,M,26.0,M,,*67
$GPRMC,123545.000,A,5356.21498,N,02734.86336,E,00.00,252.7,290508,,,A*67
$PORZD,A,016.1*3A
$GPGSA,A,3,28,27,23,13,07,25,,,,,,,,,,,,,,,,,,,06.3,04.9,04.1*03
$GPGGA,123545.000,5356.21502,N,02734.86328,E,1,06,04.8,254.4,M,26.0,M,,*65
$GPRMC,123546.000,A,5356.21499,N,02734.86329,E,00.00,252.7,290508,,,A*6B
$PORZD,A,016.1*3A
$GPGSA,A,3,28,27,23,13,07,25,,,,,,,,,,,,,,,,,,,06.3,04.8,04.1*02
$GPGGA,123546.000,5356.21502,N,02734.86322,E,1,06,04.8,254.4,M,26.0,M,,*6C
$GPRMC,123547.000,A,5356.21499,N,02734.86322,E,00.00,252.7,290508,,,A*61
$PORZD,A,016.1*3A
$GPGSA,A,3,28,27,23,13,07,25,,,,,,,,,,,,,,,,,,,06.3,04.8,04.1*02
$GPGGA,123547.000,5356.21503,N,02734.86315,E,1,06,04.8,254.3,M,26.0,M,,*6F
$GPRMC,123548.000,A,5356.21500,N,02734.86314,E,00.00,252.7,290508,,,A*6A
$PORZD,A,016.0*3B
$GPGSA,A,3,28,27,23,13,07,25,,,,,,,,,,,,,,,,,,,06.3,04.8,04.1*02
$GPGGA,123548.000,5356.21502,N,02734.86310,E,1,06,04.8,254.4,M,26.0,M,,*63
$GPRMC,123549.000,A,5356.21498,N,02734.86310,E,00.00,252.7,290508,,,A*6F
$PORZD,A,016.0*3B
$GPGSA,A,3,28,27,23,13,07,25,,,,,,,,,,,,,,,,,,,06.3,04.8,04.1*02
$GPGGA,123549.000,5356.21503,N,02734.86304,E,1,06,04.8,254.4,M,26.0,M,,*66
$GPRMC,123550.000,A,5356.21500,N,02734.86304,E,00.00,252.7,290508,,,A*62
$PORZD,A,016.0*3B
$GPGSV,3,1,12,02,12,247,,03,11,065,,07,76,086,35,13,48,101,50*7D
$GPGSV,3,2,12,23,12,106,46,25,55,069,38,27,83,107,28,28,05,181,45*7B
$GPGSV,3,3,12,33,17,229,,37,28,187,,39,28,183,,44,20,137,*78
$GPGSA,A,3,28,27,23,13,07,25,,,,,,,,,,,,,,,,,,,06.3,04.8,04.1*02
$GPGGA,123550.000,5356.21503,N,02734.86299,E,1,06,04.8,254.4,M,26.0,M,,*6B
$GPRMC,123551.000,A,5356.21500,N,02734.86299,E,00.00,252.7,290508,,,A*66
$PORZD,A,016.0*3B
$GPGSA,A,3,28,27,23,13,07,25,,,,,,,,,,,,,,,,,,,06.3,04.8,04.1*02
$GPGGA,123551.000,5356.21504,N,02734.86294,E,1,06,04.8,254.3,M,26.0,M,,*67
$GPRMC,123552.000,A,5356.21501,N,02734.86294,E,00.00,252.7,290508,,,A*69
$PORZD,A,016.0*3B
$GPGSA,A,3,28,27,23,13,07,25,,,,,,,,,,,,,,,,,,,06.3,04.8,04.1*02
$GPGGA,123552.000,5356.21504,N,02734.86291,E,1,06,04.8,254.4,M,26.0,M,,*66
$GPRMC,123553.000,A,5356.21500,N,02734.86291,E,00.00,252.7,290508,,,A*6C
$PORZD,A,016.0*3B
$GPGSA,A,3,28,27,23,13,07,25,,,,,,,,,,,,,,,,,,,06.3,04.8,04.1*02
$GPGGA,123553.000,5356.21505,N,02734.86296,E,1,06,04.8,254.4,M,26.0,M,,*61
$GPRMC,123554.000,A,5356.21503,N,02734.86296,E,00.00,252.7,290508,,,A*6F
$PORZD,A,015.9*31
$GPGSA,A,3,28,27,23,13,07,25,,,,,,,,,,,,,,,,,,,06.3,04.8,04.1*02
$GPGGA,123554.000,5356.21506,N,02734.86301,E,1,06,04.8,254.4,M,26.0,M,,*6A
$GPRMC,123555.000,A,5356.21504,N,02734.86300,E,00.00,252.7,290508,,,A*67
$PORZD,A,015.9*31
$GPGSA,A,3,28,27,23,13,07,25,,,,,,,,,,,,,,,,,,,06.3,04.8,04.1*02
$GPGGA,123555.000,5356.21507,N,02734.86304,E,1,06,04.8,254.5,M,26.0,M,,*6E
$GPRMC,123556.000,A,5356.21504,N,02734.86303,E,00.00,252.7,290508,,,A*67
$PORZD,A,015.9*31
$GPGSV,4,1,13,02,12,247,,03,11,065,,06,10,045,,07,76,086,36*75
$GPGSV,4,2,13,13,47,102,50,23,12,106,46,25,55,069,38,27,83,105,30*77
$GPGSV,4,3,13,28,05,181,45,33,17,229,,37,28,187,,39,28,183,*7F
$GPGSV,4,4,13,44,20,137,*4C
$GPGSA,A,3,28,27,23,13,07,25,,,,,,,,,,,,,,,,,,,06.3,04.8,04.1*02
$GPGGA,123556.000,5356.21507,N,02734.86306,E,1,06,04.8,254.5,M,26.0,M,,*6F
$GPRMC,123557.000,A,5356.21505,N,02734.86306,E,00.00,252.7,290508,,,A*62
$PORZD,A,015.9*31
$GPGSA,A,3,28,27,23,13,07,25,,,,,,,,,,,,,,,,,,,06.3,04.8,04.1*02
$GPGGA,123557.000,5356.21508,N,02734.86307,E,1,06,04.8,254.5,M,26.0,M,,*60
$GPRMC,123558.000,A,5356.21505,N,02734.86306,E,00.00,252.7,290508,,,A*6D
$PORZD,A,015.8*30
$GPGSA,A,3,28,27,23,13,07,25,,,,,,,,,,,,,,,,,,,06.3,04.8,04.1*02
$GPGGA,123558.000,5356.21508,N,02734.86308,E,1,06,04.8,254.5,M,26.0,M,,*60
$GPRMC,123559.000,A,5356.21505,N,02734.86309,E,00.00,252.7,290508,,,A*63
$PORZD,A,015.8*30
$GPGSA,A,3,28,27,23,13,07,25,,,,,,,,,,,,,,,,,,,06.3,04.8,04.1*02
$GPGGA,123559.000,5356.21508,N,02734.86309,E,1,06,04.8,254.5,M,26.0,M,,*60
$GPRMC,123600.000,A,5356.21505,N,02734.86309,E,00.00,252.7,290508,,,A*6C
$PORZD,A,015.8*30
$GPGSA,A,3,28,27,23,13,07,25,,,,,,,,,,,,,,,,,,,06.3,04.8,04.1*02
$GPGGA,123600.000,5356.21508,N,02734.86309,E,1,06,04.8,254.5,M,26.0,M,,*6F
$GPRMC,123601.000,A,5356.21506,N,02734.86309,E,00.00,252.7,290508,,,A*6E
$PORZD,A,015.8*30
$GPGSA,A,3,28,27,23,13,07,25,,,,,,,,,,,,,,,,,,,06.3,04.8,04.1*02
$GPGGA,123601.000,5356.21509,N,02734.86307,E,1,06,04.8,254.5,M,26.0,M,,*61
$GPRMC,123602.000,A,5356.21506,N,02734.86307,E,00.00,252.7,290508,,,A*63
$PORZD,A,015.8*30
$GPGSV,4,1,13,02,12,247,,03,11,065,,06,10,045,,07,76,086,34*77
$GPGSV,4,2,13,13,47,102,51,23,12,106,45,25,55,069,38,27,83,105,30*75
$GPGSV,4,3,13,28,05,181,45,33,17,229,,37,28,187,,39,28,183,*7F
$GPGSV,4,4,13,44,20,137,*4C
$GPGSA,A,3,28,27,23,13,07,25,,,,,,,,,,,,,,,,,,,06.3,04.8,04.1*02
$GPGGA,123602.000,5356.21508,N,02734.86308,E,1,06,04.8,254.5,M,26.0,M,,*6C
$GPRMC,123603.000,A,5356.21503,N,02734.86309,E,00.00,252.7,290508,,,A*69
$PORZD,A,015.8*30
$GPGSA,A,3,28,27,23,13,07,25,,,,,,,,,,,,,,,,,,,06.3,04.8,04.1*02
$GPGGA,123603.000,5356.21507,N,02734.86308,E,1,06,04.8,254.6,M,26.0,M,,*61
$GPRMC,123604.000,A,5356.21504,N,02734.86308,E,00.00,252.7,290508,,,A*68
$PORZD,A,015.8*30
$GPGSA,A,3,28,27,23,13,07,25,,,,,,,,,,,,,,,,,,,06.3,04.8,04.1*02
$GPGGA,123604.000,5356.21508,N,02734.86306,E,1,06,04.8,254.5,M,26.0,M,,*64
$GPRMC,123605.000,A,5356.21506,N,02734.86306,E,00.00,252.7,290508,,,A*65
$PORZD,A,015.8*30
$GPGSA,A,3,28,27,23,13,07,25,,,,,,,,,,,,,,,,,,,06.3,04.8,04.0*03
$GPGGA,123605.000,5356.21508,N,02734.86304,E,1,06,04.8,254.5,M,26.0,M,,*67
$GPRMC,123606.000,A,5356.21505,N,02734.86304,E,00.00,252.7,290508,,,A*67
$PORZD,A,015.8*30
$GPGSA,A,3,28,27,23,13,07,25,,,,,,,,,,,,,,,,,,,06.3,04.8,04.0*03
$GPGGA,123606.000,5356.21509,N,02734.86302,E,1,06,04.8,254.5,M,26.0,M,,*63
$GPRMC,123607.000,A,5356.21506,N,02734.86302,E,00.00,252.7,290508,,,A*63
$PORZD,A,015.8*30
$GPGSA,A,3,28,27,23,13,07,25,,,,,,,,,,,,,,,,,,,06.3,04.8,04.0*03
$GPGGA,123607.000,5356.21508,N,02734.86301,E,1,06,04.8,254.5,M,26.0,M,,*60
$GPRMC,123608.000,A,5356.21504,N,02734.86302,E,00.00,252.7,290508,,,A*6E
$PORZD,A,015.8*30
$GPGSV,4,1,13,02,12,247,,03,11,065,,06,10,045,,07,76,086,34*77
$GPGSV,4,2,13,13,47,102,51,23,12,106,45,25,55,069,38,27,83,105,30*75
$GPGSV,4,3,13,28,05,181,45,33,17,229,,37,28,187,,39,28,183,*7F
$GPGSV,4,4,13,44,20,137,*4C
$GPGSA,A,3,28,27,23,13,07,25,,,,,,,,,,,,,,,,,,,06.3,04.8,04.0*03
$GPGGA,123608.000,5356.21508,N,02734.86299,E,1,06,04.8,254.5,M,26.0,M,,*6F
$GPRMC,123609.000,A,5356.21507,N,02734.86299,E,00.00,252.7,290508,,,A*6F
$PORZD,A,015.8*30
$GPGSA,A,3,28,27,23,13,07,25,,,,,,,,,,,,,,,,,,,06.3,04.8,04.0*03
$GPGGA,123609.000,5356.21510,N,02734.86297,E,1,06,04.8,254.5,M,26.0,M,,*69
$GPRMC,123610.000,A,5356.21507,N,02734.86298,E,00.00,252.7,290508,,,A*66
$PORZD,A,015.7*3F
$GPGSA,A,3,28,27,23,13,07,25,,,,,,,,,,,,,,,,,,,06.3,04.8,04.0*03
$GPGGA,123610.000,5356.21512,N,02734.86295,E,1,06,04.8,254.5,M,26.0,M,,*61
$GPRMC,123611.000,A,5356.21510,N,02734.86295,E,00.00,252.7,290508,,,A*6C
$PORZD,A,015.8*30
$GPGSA,A,3,28,27,23,13,07,25,,,,,,,,,,,,,,,,,,,06.3,04.8,04.0*03
$GPGGA,123611.000,5356.21512,N,02734.86293,E,1,06,04.8,254.4,M,26.0,M,,*67
$GPRMC,123612.000,A,5356.21508,N,02734.86295,E,00.00,252.7,290508,,,A*66
$PORZD,A,015.7*3F
$GPGSA,A,3,28,27,23,13,07,25,,,,,,,,,,,,,,,,,,,06.3,04.8,04.0*03
$GPGGA,123612.000,5356.21512,N,02734.86291,E,1,06,04.8,254.4,M,26.0,M,,*66
$GPRMC,123613.000,A,5356.21510,N,02734.86290,E,00.00,252.7,290508,,,A*6B
$PORZD,A,015.7*3F
$GPGSA,A,3,28,27,23,13,07,25,,,,,,,,,,,,,,,,,,,06.3,04.8,04.0*03
$GPGGA,123613.000,5356.21514,N,02734.86287,E,1,06,04.8,254.4,M,26.0,M,,*66
$GPRMC,123614.000,A,5356.21512,N,02734.86287,E,00.00,252.7,290508,,,A*68
$PORZD,A,015.7*3F
$GPGSV,4,1,13,02,12,247,20,03,11,065,,06,10,045,,07,76,086,34*75
$GPGSV,4,2,13,13,47,102,51,23,12,106,46,25,55,069,38,27,83,105,29*7E
$GPGSV,4,3,13,28,05,181,45,33,17,229,,37,28,187,,39,28,183,*7F
$GPGSV,4,4,13,44,20,137,*4C
$GPGSA,A,3,28,27,23,13,07,25,,,,,,,,,,,,,,,,,,,06.3,04.8,04.0*03
$GPGGA,123614.000,5356.21515,N,02734.86283,E,1,06,04.8,254.4,M,26.0,M,,*64
$GPRMC,123615.000,A,5356.21512,N,02734.86284,E,00.00,252.7,290508,,,A*6A
$PORZD,A,015.7*3F
$GPGSA,A,3,28,27,23,13,07,25,,,,,,,,,,,,,,,,,,,06.3,04.8,04.0*03
$GPGGA,123615.000,5356.21516,N,02734.86281,E,1,06,04.8,254.4,M,26.0,M,,*64
$GPRMC,123616.000,A,5356.21513,N,02734.86280,E,00.00,252.7,290508,,,A*6C
$PORZD,A,015.7*3F
$GPGSA,A,3,28,27,23,13,07,25,,,,,,,,,,,,,,,,,,,06.3,04.8,04.0*03
$GPGGA,123616.000,5356.21517,N,02734.86276,E,1,06,04.8,254.4,M,26.0,M,,*6E
$GPRMC,123617.000,A,5356.21515,N,02734.86276,E,00.00,252.7,290508,,,A*62
$PORZD,A,015.7*3F
$GPGSA,A,3,28,27,23,13,07,25,,,,,,,,,,,,,,,,,,,06.3,04.8,04.0*03
$GPGGA,123617.000,5356.21518,N,02734.86271,E,1,06,04.8,254.4,M,26.0,M,,*67
$GPRMC,123618.000,A,5356.21515,N,02734.86272,E,00.00,252.7,290508,,,A*69
$PORZD,A,015.7*3F
$GPGSA,A,3,28,27,23,13,07,25,,,,,,,,,,,,,,,,,,,06.3,04.8,04.0*03
$GPGGA,123618.000,5356.21519,N,02734.86266,E,1,06,04.8,254.4,M,26.0,M,,*6F
$GPRMC,123619.000,A,5356.21516,N,02734.86267,E,00.00,252.7,290508,,,A*6F
$PORZD,A,015.7*3F
$GPGSA,A,3,28,27,23,13,07,25,,,,,,,,,,,,,,,,,,,06.3,04.8,04.0*03
$GPGGA,123619.000,5356.21520,N,02734.86260,E,1,06,04.8,254.4,M,26.0,M,,*62
$GPRMC,123620.000,A,5356.21518,N,02734.86259,E,00.00,252.7,290508,,,A*66
$PORZD,A,015.7*3F
$GPGSV,4,1,13,02,12,247,,03,11,065,,06,10,045,,07,76,086,34*77
$GPGSV,4,2,13,13,47,102,50,23,12,106,45,25,55,069,38,27,83,105,29*7C
$GPGSV,4,3,13,28,05,181,45,33,17,229,,37,28,187,,39,28,183,*7F
$GPGSV,4,4,13,44,20,137,*4C
$GPGSA,A,3,28,27,23,13,07,25,,,,,,,,,,,,,,,,,,,06.3,04.8,04.0*03
$GPGGA,123620.000,5356.21521,N,02734.86254,E,1,06,04.8,254.4,M,26.0,M,,*6E
$GPRMC,123621.000,A,5356.21519,N,02734.86254,E,00.00,252.7,290508,,,A*6B
$PORZD,A,015.7*3F
$GPGSA,A,3,28,27,23,13,07,25,,,,,,,,,,,,,,,,,,,06.3,04.8,04.0*03
$GPGGA,123621.000,5356.21523,N,02734.86248,E,1,06,04.8,254.4,M,26.0,M,,*60
$GPRMC,123622.000,A,5356.21520,N,02734.86249,E,00.00,252.7,290508,,,A*6E
$PORZD,A,015.7*3F
$GPGSA,A,3,28,27,23,13,07,25,,,,,,,,,,,,,,,,,,,06.3,04.8,04.0*03
$GPGGA,123622.000,5356.21523,N,02734.86244,E,1,06,04.8,254.4,M,26.0,M,,*6F
$GPRMC,123623.000,A,5356.21521,N,02734.86244,E,00.00,252.7,290508,,,A*63
$PORZD,A,015.7*3F
$GPGSA,A,3,28,27,23,13,07,25,,,,,,,,,,,,,,,,,,,06.3,04.8,04.0*03
$GPGGA,123623.000,5356.21525,N,02734.86241,E,1,06,04.8,254.5,M,26.0,M,,*6C
$GPRMC,123624.000,A,5356.21522,N,02734.86242,E,00.00,252.7,290508,,,A*61
$PORZD,A,015.6*3E
$GPGSA,A,3,28,27,23,13,07,25,,,,,,,,,,,,,,,,,,,06.3,04.8,04.0*03
$GPGGA,123624.000,5356.21526,N,02734.86245,E,1,06,04.8,254.5,M,26.0,M,,*6C
$GPRMC,123625.000,A,5356.21523,N,02734.86246,E,00.00,252.7,290508,,,A*65
$PORZD,A,015.6*3E
$GPGSA,A,3,28,27,23,13,07,25,,,,,,,,,,,,,,,,,,,06.3,04.8,04.0*03
$GPGGA,123625.000,5356.21527,N,02734.86242,E,1,06,04.8,254.6,M,26.0,M,,*68
$GPRMC,123626.000,A,5356.21526,N,02734.86241,E,00.00,252.7,290508,,,A*64
$PORZD,A,015.6*3E
$GPGSV,4,1,13,02,12,247,,03,11,065,,06,10,045,,07,76,085,35*75
$GPGSV,4,2,13,13,47,102,50,23,12,106,45,25,55,069,38,27,83,104,30*75
$GPGSV,4,3,13,28,05,181,46,33,17,229,,37,28,187,,39,28,183,*7C
$GPGSV,4,4,13,44,20,137,*4C
$GPGSA,A,3,28,27,23,13,07,25,,,,,,,,,,,,,,,,,,,06.3,04.8,04.0*03
$GPGGA,123626.000,5356.21529,N,02734.86243,E,1,06,04.8,254.6,M,26.0,M,,*64
$GPRMC,123627.000,A,5356.21526,N,02734.86243,E,00.00,252.7,290508,,,A*67
$PORZD,A,015.6*3E
$GPGSA,A,3,28,27,23,13,07,25,,,,,,,,,,,,,,,,,,,06.3,04.8,04.0*03
$GPGGA,123627.000,5356.21529,N,02734.86247,E,1,06,04.8,254.6,M,26.0,M,,*61
$GPRMC,123628.000,A,5356.21525,N,02734.86250,E,00.00,252.7,290508,,,A*69
$PORZD,A,015.6*3E
$GPGSA,A,3,28,27,23,13,07,25,,,,,,,,,,,,,,,,,,,06.3,04.8,04.0*03
$GPGGA,123628.000,5356.21526,N,02734.86245,E,1,06,04.8,254.7,M,26.0,M,,*62
$GPRMC,123629.000,A,5356.21524,N,02734.86244,E,00.00,252.7,290508,,,A*6C
$PORZD,A,015.6*3E
$GPGSA,A,3,28,27,23,13,07,25,,,,,,,,,,,,,,,,,,,06.3,04.8,04.0*03
$GPGGA,123629.000,5356.21527,N,02734.86247,E,1,06,04.8,254.7,M,26.0,M,,*60
$GPRMC,123630.000,A,5356.21524,N,02734.86249,E,00.00,252.7,290508,,,A*69
$PORZD,A,015.6*3E
$GPGSA,A,3,28,27,23,13,07,25,,,,,,,,,,,,,,,,,,,06.3,04.8,04.0*03
$GPGGA,123630.000,5356.21525,N,02734.86244,E,1,06,04.8,254.8,M,26.0,M,,*66
$GPRMC,123631.000,A,5356.21522,N,02734.86244,E,00.00,252.7,290508,,,A*63
$PORZD,A,015.5*3D
$GPGSA,A,3,28,27,23,13,07,25,,,,,,,,,,,,,,,,,,,06.3,04.8,04.0*03
$GPGGA,123631.000,5356.21524,N,02734.86240,E,1,06,04.8,254.8,M,26.0,M,,*62
$GPRMC,123632.000,A,5356.21521,N,02734.86240,E,00.00,252.7,290508,,,A*67
$PORZD,A,015.5*3D
$GPGSV,4,1,13,02,12,247,,03,11,065,,06,10,045,,07,76,085,34*74
$GPGSV,4,2,13,13,47,102,51,23,12,106,46,25,55,069,39,27,83,104,31*77
$GPGSV,4,3,13,28,05,181,45,33,17,229,,37,28,187,,39,28,183,*7F
$GPGSV,4,4,13,44,20,137,*4C
$GPGSA,A,3,28,27,23,13,07,25,,,,,,,,,,,,,,,,,,,06.3,04.8,04.0*03
$GPGGA,123632.000,5356.21522,N,02734.86236,E,1,06,04.8,254.8,M,26.0,M,,*66
$GPRMC,123633.000,A,5356.21519,N,02734.86238,E,00.00,252.7,290508,,,A*62
$PORZD,A,015.5*3D
$GPGSA,A,3,28,27,23,13,07,25,,,,,,,,,,,,,,,,,,,06.3,04.8,04.0*03
$GPGGA,123633.000,5356.21519,N,02734.86234,E,1,06,04.8,254.9,M,26.0,M,,*6C
$GPRMC,123634.000,A,5356.21517,N,02734.86234,E,00.00,252.7,290508,,,A*67
$PORZD,A,015.5*3D
$GPGSA,A,3,28,27,23,13,07,25,,,,,,,,,,,,,,,,,,,06.3,04.8,04.0*03
$GPGGA,123634.000,5356.21516,N,02734.86231,E,1,06,04.8,255.0,M,26.0,M,,*69
$GPRMC,123635.000,A,5356.21512,N,02734.86232,E,00.00,252.7,290508,,,A*65
$PORZD,A,015.5*3D
$GPGSA,A,3,28,27,23,13,07,25,,,,,,,,,,,,,,,,,,,06.3,04.8,04.0*03
$GPGGA,123635.000,5356.21513,N,02734.86229,E,1,06,04.8,255.0,M,26.0,M,,*64
$GPRMC,123636.000,A,5356.21510,N,02734.86229,E,00.00,252.7,290508,,,A*6E
$PORZD,A,015.5*3D
$GPGSA,A,3,28,27,23,13,07,25,,,,,,,,,,,,,,,,,,,06.3,04.8,04.0*03
$GPGGA,123636.000,5356.21511,N,02734.86226,E,1,06,04.8,255.1,M,26.0,M,,*6B
$GPRMC,123637.000,A,5356.21508,N,02734.86227,E,00.00,252.7,290508,,,A*68
$PORZD,A,015.5*3D
$GPGSA,A,3,28,27,23,13,07,25,,,,,,,,,,,,,,,,,,,06.3,04.8,04.0*03
$GPGGA,123637.000,5356.21509,N,02734.86224,E,1,06,04.8,255.1,M,26.0,M,,*61
$GPRMC,123638.000,A,5356.21507,N,02734.86225,E,00.00,252.7,290508,,,A*6A
$PORZD,A,015.5*3D
$GPGSV,4,1,13,02,12,247,,03,11,065,,06,10,045,,07,76,085,35*75
$GPGSV,4,2,13,13,47,102,50,23,12,106,46,25,55,069,38,27,83,104,31*77
$GPGSV,4,3,13,28,05,181,46,33,17,229,,37,28,187,,39,28,183,*7C
$GPGSV,4,4,13,44,20,137,*4C
$GPGSA,A,3,28,27,23,13,07,25,,,,,,,,,,,,,,,,,,,06.3,04.8,04.0*03
$GPGGA,123638.000,5356.21507,N,02734.86222,E,1,06,04.8,255.1,M,26.0,M,,*66
$GPRMC,123639.000,A,5356.21504,N,02734.86223,E,00.00,252.7,290508,,,A*6E
$PORZD,A,015.5*3D
$GPGSA,A,3,28,27,23,13,07,25,,,,,,,,,,,,,,,,,,,06.3,04.8,04.0*03
$GPGGA,123639.000,5356.21505,N,02734.86221,E,1,06,04.8,255.2,M,26.0,M,,*65
$GPRMC,123640.000,A,5356.21502,N,02734.86221,E,00.00,252.7,290508,,,A*64
$PORZD,A,015.5*3D
$GPGSA,A,3,28,27,23,13,07,25,,,,,,,,,,,,,,,,,,,06.3,04.8,04.0*03
$GPGGA,123640.000,5356.21504,N,02734.86219,E,1,06,04.8,255.2,M,26.0,M,,*61
$GPRMC,123641.000,A,5356.21501,N,02734.86220,E,00.00,252.7,290508,,,A*67
$PORZD,A,015.4*3C
$GPGSA,A,3,28,27,23,13,07,25,,,,,,,,,,,,,,,,,,,06.3,04.8,04.0*03
$GPGGA,123641.000,5356.21503,N,02734.86218,E,1,06,04.8,255.2,M,26.0,M,,*66
$GPRMC,123642.000,A,5356.21500,N,02734.86219,E,00.00,252.7,290508,,,A*6F
$PORZD,A,015.4*3C
$GPGSA,A,3,28,27,23,13,07,25,,,,,,,,,,,,,,,,,,,06.3,04.8,04.0*03
$GPGGA,123642.000,5356.21502,N,02734.86217,E,1,06,04.8,255.2,M,26.0,M,,*6B
$GPRMC,123643.000,A,5356.21499,N,02734.86217,E,00.00,252.7,290508,,,A*61
$PORZD,A,015.4*3C
$GPGSA,A,3,28,27,23,13,07,25,,,,,,,,,,,,,,,,,,,06.3,04.8,04.0*03
$GPGGA,123643.000,5356.21501,N,02734.86216,E,1,06,04.8,255.3,M,26.0,M,,*69
$GPRMC,123644.000,A,5356.21498,N,02734.86216,E,00.00,252.7,290508,,,A*66
$PORZD,A,015.4*3C
$GPGSV,4,1,13,02,12,247,,03,11,065,,06,10,045,,07,76,085,35*75
$GPGSV,4,2,13,13,47,102,51,23,12,106,46,25,55,069,37,27,83,104,32*7A
$GPGSV,4,3,13,28,05,181,46,33,17,229,,37,28,187,,39,28,183,*7C
$GPGSV,4,4,13,44,20,137,*4C
$GPGSA,A,3,28,27,23,13,07,25,,,,,,,,,,,,,,,,,,,06.3,04.8,04.0*03
$GPGGA,123644.000,5356.21502,N,02734.86215,E,1,06,04.8,255.2,M,26.0,M,,*6F
$GPRMC,123645.000,A,5356.21500,N,02734.86213,E,00.00,252.7,290508,,,A*62
$PORZD,A,015.4*3C
$GPGSA,A,3,28,27,23,13,07,25,,,,,,,,,,,,,,,,,,,06.3,04.8,04.0*03
$GPGGA,123645.000,5356.21503,N,02734.86213,E,1,06,04.8,255.2,M,26.0,M,,*69
$GPRMC,123646.000,A,5356.21500,N,02734.86214,E,00.00,252.7,290508,,,A*66
$PORZD,A,015.4*3C
$GPGSA,A,3,28,27,23,13,07,25,,,,,,,,,,,,,,,,,,,06.3,04.8,04.0*03
$GPGGA,123646.000,5356.21503,N,02734.86212,E,1,06,04.8,255.2,M,26.0,M,,*6B
$GPRMC,123647.000,A,5356.21501,N,02734.86213,E,00.00,252.7,290508,,,A*61
$PORZD,A,015.4*3C
$GPGSA,A,3,28,27,23,13,07,25,,,,,,,,,,,,,,,,,,,06.3,04.8,04.0*03
$GPGGA,123647.000,5356.21504,N,02734.86212,E,1,06,04.8,255.2,M,26.0,M,,*6D
$GPRMC,123648.000,A,5356.21501,N,02734.86212,E,00.00,252.7,290508,,,A*6F
$PORZD,A,015.4*3C
$GPGSA,A,3,28,27,23,13,07,25,,,,,,,,,,,,,,,,,,,06.3,04.8,04.0*03
$GPGGA,123648.000,5356.21505,N,02734.86212,E,1,06,04.8,255.1,M,26.0,M,,*60
$GPRMC,123649.000,A,5356.21503,N,02734.86212,E,00.00,252.7,290508,,,A*6C
$PORZD,A,015.4*3C
$GPGSA,A,3,28,27,23,13,07,25,,,,,,,,,,,,,,,,,,,06.3,04.8,04.0*03
$GPGGA,123649.000,5356.21505,N,02734.86212,E,1,06,04.8,255.1,M,26.0,M,,*61
$GPRMC,123650.000,A,5356.21502,N,02734.86214,E,00.00,252.7,290508,,,A*63
$PORZD,A,015.4*3C
$GPGSV,4,1,13,02,12,247,,03,11,065,,06,10,045,,07,76,085,35*75
$GPGSV,4,2,13,13,47,102,50,23,12,106,45,25,55,069,37,27,83,104,31*7B
$GPGSV,4,3,13,28,05,181,45,33,17,229,,37,28,187,,39,28,183,*7F
$GPGSV,4,4,13,44,20,137,*4C
$GPGSA,A,3,28,27,23,13,07,25,,,,,,,,,,,,,,,,,,,06.3,04.8,04.0*03
$GPGGA,123650.000,5356.21505,N,02734.86213,E,1,06,04.8,255.1,M,26.0,M,,*68
$GPRMC,123651.000,A,5356.21503,N,02734.86213,E,00.00,252.7,290508,,,A*64
$PORZD,A,015.4*3C
$GPGSA,A,3,28,27,23,13,07,25,,,,,,,,,,,,,,,,,,,06.3,04.8,04.0*03
$GPGGA,123651.000,5356.21507,N,02734.86211,E,1,06,04.8,255.1,M,26.0,M,,*69
$GPRMC,123652.000,A,5356.21504,N,02734.86211,E,00.00,252.7,290508,,,A*62
$PORZD,A,015.4*3C
$GPGSA,A,3,28,27,23,13,07,25,,,,,,,,,,,,,,,,,,,06.3,04.8,04.0*03
$GPGGA,123652.000,5356.21508,N,02734.86209,E,1,06,04.8,255.0,M,26.0,M,,*6D
$GPRMC,123653.000,A,5356.21506,N,02734.86208,E,00.00,252.7,290508,,,A*69
$PORZD,A,015.4*3C
$GPGSA,A,3,28,27,23,13,07,25,,,,,,,,,,,,,,,,,,,06.3,04.8,04.0*03
$GPGGA,123653.000,5356.21511,N,02734.86215,E,1,06,04.8,255.0,M,26.0,M,,*69
$GPRMC,123654.000,A,5356.21508,N,02734.86216,E,00.00,252.7,290508,,,A*6F
$PORZD,A,015.4*3C
$GPGSA,A,3,28,27,23,13,07,25,,,,,,,,,,,,,,,,,,,06.3,04.8,04.0*03
$GPGGA,123654.000,5356.21514,N,02734.86221,E,1,06,04.8,255.1,M,26.0,M,,*6D
$GPRMC,123655.000,A,5356.21510,N,02734.86222,E,00.00,252.7,290508,,,A*60
$PORZD,A,015.4*3C
$GPGSA,A,3,28,27,23,13,07,25,,,,,,,,,,,,,,,,,,,06.3,04.8,04.0*03
$GPGGA,123655.000,5356.21516,N,02734.86225,E,1,06,04.8,255.1,M,26.0,M,,*6A
$GPRMC,123656.000,A,5356.21514,N,02734.86225,E,00.00,252.7,290508,,,A*60
$PORZD,A,015.3*3B
$GPGSV,4,1,14,02,12,247,,03,11,065,,06,10,045,,07,75,084,35*70
$GPGSV,4,2,14,08,59,224,,13,47,102,50,23,12,106,47,25,54,069,37*76
$GPGSV,4,3,14,27,83,102,32,28,05,181,45,33,17,229,,37,28,187,*7E
$GPGSV,4,4,14,39,28,183,,44,20,137,*71
$GPGSA,A,3,28,27,23,13,07,25,,,,,,,,,,,,,,,,,,,06.3,04.8,04.0*03
$GPGGA,123656.000,5356.21518,N,02734.86229,E,1,06,04.8,255.1,M,26.0,M,,*6B
$GPRMC,123657.000,A,5356.21515,N,02734.86230,E,00.00,252.7,290508,,,A*64
$PORZD,A,015.3*3B
$GPGSA,A,3,28,27,23,13,07,25,,,,,,,,,,,,,,,,,,,06.2,04.8,04.0*02
$GPGGA,123657.000,5356.21519,N,02734.86231,E,1,06,04.8,255.1,M,26.0,M,,*62
$GPRMC,123658.000,A,5356.21517,N,02734.86231,E,00.00,252.7,290508,,,A*68
$PORZD,A,015.3*3B
$GPGSA,A,3,28,27,23,13,07,25,,,,,,,,,,,,,,,,,,,06.2,04.8,04.0*02
$GPGGA,123658.000,5356.21521,N,02734.86233,E,1,06,04.8,255.1,M,26.0,M,,*64
$GPRMC,123659.000,A,5356.21519,N,02734.86233,E,00.00,252.7,290508,,,A*65
$PORZD,A,015.3*3B
$GPGSA,A,3,28,27,23,13,07,25,,,,,,,,,,,,,,,,,,,06.2,04.8,04.0*02
$GPGGA,123659.000,5356.21524,N,02734.86232,E,1,06,04.8,255.1,M,26.0,M,,*61
$GPRMC,123700.000,A,5356.21522,N,02734.86232,E,00.00,252.7,290508,,,A*61
$PORZD,A,015.3*3B
$GPGSA,A,3,28,27,23,13,07,25,,,,,,,,,,,,,,,,,,,06.2,04.8,04.0*02
$GPGGA,123700.000,5356.21526,N,02734.86232,E,1,06,04.8,255.0,M,26.0,M,,*6F
$GPRMC,123701.000,A,5356.21522,N,02734.86233,E,00.00,252.7,290508,,,A*61
$PORZD,A,015.3*3B
$GPGSA,A,3,28,27,23,13,07,25,,,,,,,,,,,,,,,,,,,06.2,04.8,04.0*02
$GPGGA,123701.000,5356.21526,N,02734.86232,E,1,06,04.8,255.1,M,26.0,M,,*6F
$GPRMC,123702.000,A,5356.21524,N,02734.86232,E,00.00,252.7,290508,,,A*65
$PORZD,A,015.3*3B
$GPGSV,4,1,14,02,12,247,,03,11,065,,06,10,045,,07,75,084,34*71
$GPGSV,4,2,14,08,59,224,,13,47,102,50,23,12,106,46,25,54,069,38*78
$GPGSV,4,3,14,27,83,102,31,28,05,181,45,33,17,229,,37,28,187,*7D
$GPGSV,4,4,14,39,28,183,,44,20,137,*71
$GPGSA,A,3,28,27,23,13,07,25,,,,,,,,,,,,,,,,,,,06.2,04.8,04.0*02
$GPGGA,123702.000,5356.21528,N,02734.86231,E,1,06,04.8,255.0,M,26.0,M,,*60
$GPRMC,123703.000,A,5356.21526,N,02734.86231,E,00.00,252.7,290508,,,A*65
$PORZD,A,015.3*3B
$GPGSA,A,3,28,27,23,13,07,25,,,,,,,,,,,,,,,,,,,06.2,04.8,04.0*02
$GPGGA,123703.000,5356.21529,N,02734.86230,E,1,06,04.8,255.0,M,26.0,M,,*61
$GPRMC,123704.000,A,5356.21526,N,02734.86230,E,00.00,252.7,290508,,,A*63
$PORZD,A,015.2*3A
$GPGSA,A,3,28,27,23,13,07,25,,,,,,,,,,,,,,,,,,,06.2,04.8,04.0*02
$GPGGA,123704.000,5356.21530,N,02734.86228,E,1,06,04.8,255.0,M,26.0,M,,*67
$GPRMC,123705.000,A,5356.21528,N,02734.86228,E,00.00,252.7,290508,,,A*65
$PORZD,A,015.2*3A
$GPGSA,A,3,28,27,23,13,07,25,,,,,,,,,,,,,,,,,,,06.2,04.8,04.0*02
$GPGGA,123705.000,5356.21533,N,02734.86226,E,1,06,04.8,255.0,M,26.0,M,,*6B
$GPRMC,123706.000,A,5356.21530,N,02734.86226,E,00.00,252.7,290508,,,A*61
$PORZD,A,015.3*3B
$GPGSA,A,3,28,27,23,13,07,25,,,,,,,,,,,,,,,,,,,06.2,04.8,04.0*02
$GPGGA,123706.000,5356.21534,N,02734.86224,E,1,06,04.8,255.0,M,26.0,M,,*6D
$GPRMC,123707.000,A,5356.21531,N,02734.86225,E,00.00,252.7,290508,,,A*62
$PORZD,A,015.3*3B
$GPGSA,A,3,28,27,23,13,07,25,,,,,,,,,,,,,,,,,,,06.2,04.8,04.0*02
$GPGGA,123707.000,5356.21536,N,02734.86223,E,1,06,04.7,254.9,M,26.0,M,,*6E
$GPRMC,123708.000,A,5356.21534,N,02734.86222,E,00.00,252.7,290508,,,A*6F
$PORZD,A,015.2*3A
$GPGSV,4,1,14,02,12,247,,03,11,065,,06,10,045,,07,75,084,36*73
$GPGSV,4,2,14,08,59,224,,13,47,102,50,23,12,106,45,25,54,069,38*7B
$GPGSV,4,3,14,27,83,102,31,28,05,181,46,33,17,229,,37,28,187,*7E
$GPGSV,4,4,14,39,28,183,,44,20,137,*71
$GPGSA,A,3,28,27,23,13,07,25,,,,,,,,,,,,,,,,,,,06.2,04.7,04.0*0D
$GPGGA,123708.000,5356.21539,N,02734.86220,E,1,06,04.7,254.9,M,26.0,M,,*6D
$GPRMC,123709.000,A,5356.21536,N,02734.86219,E,00.00,252.7,290508,,,A*64
$PORZD,A,015.3*3B
$GPGSA,A,3,28,27,23,13,07,25,,,,,,,,,,,,,,,,,,,06.2,04.7,04.0*0D
$GPGGA,123709.000,5356.21541,N,02734.86218,E,1,06,04.7,254.8,M,26.0,M,,*69
$GPRMC,123710.000,A,5356.21538,N,02734.86220,E,00.00,252.7,290508,,,A*68
$PORZD,A,015.3*3B
$GPGSA,A,3,28,27,23,13,07,25,,,,,,,,,,,,,,,,,,,06.2,04.7,04.0*0D
$GPGGA,123710.000,5356.21542,N,02734.86219,E,1,06,04.7,254.8,M,26.0,M,,*63
$GPRMC,123711.000,A,5356.21539,N,02734.86219,E,00.00,252.7,290508,,,A*62
$PORZD,A,015.3*3B
$GPGSA,A,3,28,27,23,13,07,25,,,,,,,,,,,,,,,,,,,06.2,04.7,04.0*0D
$GPGGA,123711.000,5356.21543,N,02734.86218,E,1,06,04.7,254.8,M,26.0,M,,*62
$GPRMC,123712.000,A,5356.21541,N,02734.86218,E,00.00,252.7,290508,,,A*6F
$PORZD,A,015.2*3A
$GPGSA,A,3,28,27,23,13,07,25,,,,,,,,,,,,,,,,,,,06.2,04.7,04.0*0D
$GPGGA,123712.000,5356.21544,N,02734.86218,E,1,06,04.7,254.7,M,26.0,M,,*69
$GPRMC,123713.000,A,5356.21541,N,02734.86219,E,00.00,252.7,290508,,,A*6F
$PORZD,A,015.2*3A
$GPGSA,A,3,28,27,23,13,07,25,,,,,,,,,,,,,,,,,,,06.2,04.7,04.0*0D
$GPGGA,123713.000,5356.21544,N,02734.86218,E,1,06,04.7,254.7,M,26.0,M,,*68
$GPRMC,123714.000,A,5356.21541,N,02734.86219,E,00.00,252.7,290508,,,A*68
$PORZD,A,015.2*3A
$GPGSV,4,1,14,02,12,247,,03,11,065,,06,10,045,,07,75,084,35*70
$GPGSV,4,2,14,08,59,224,,13,47,102,50,23,12,106,46,25,54,069,38*78
$GPGSV,4,3,14,27,83,102,31,28,05,181,45,33,17,229,,37,28,187,*7D
$GPGSV,4,4,14,39,28,183,,44,20,137,*71
$GPGSA,A,3,28,27,23,13,07,25,,,,,,,,,,,,,,,,,,,06.2,04.7,04.0*0D
$GPGGA,123714.000,5356.21544,N,02734.86217,E,1,06,04.7,254.7,M,26.0,M,,*60
$GPRMC,123715.000,A,5356.21542,N,02734.86218,E,00.00,252.7,290508,,,A*6B
$PORZD,A,015.2*3A
$GPGSA,A,3,28,27,23,13,07,25,,,,,,,,,,,,,,,,,,,06.2,04.7,04.0*0D
$GPGGA,123715.000,5356.21544,N,02734.86216,E,1,06,04.7,254.7,M,26.0,M,,*60
$GPRMC,123716.000,A,5356.21542,N,02734.86216,E,00.00,252.7,290508,,,A*66
$PORZD,A,015.2*3A
$GPGSA,A,3,28,27,23,13,07,25,,,,,,,,,,,,,,,,,,,06.2,04.7,04.0*0D
$GPGGA,123716.000,5356.21544,N,02734.86215,E,1,06,04.7,254.7,M,26.0,M,,*60
$GPRMC,123717.000,A,5356.21542,N,02734.86215,E,00.00,252.7,290508,,,A*64
$PORZD,A,015.2*3A
$GPGSA,A,3,28,27,23,13,07,25,,,,,,,,,,,,,,,,,,,06.2,04.7,04.0*0D
$GPGGA,123717.000,5356.21543,N,02734.86213,E,1,06,04.7,254.7,M,26.0,M,,*60
$GPRMC,123718.000,A,5356.21540,N,02734.86214,E,00.00,252.7,290508,,,A*68
$PORZD,A,015.2*3A
$GPGSA,A,3,28,27,23,13,07,25,,,,,,,,,,,,,,,,,,,06.2,04.7,04.0*0D
$GPGGA,123718.000,5356.21542,N,02734.86211,E,1,06,04.7,254.7,M,26.0,M,,*6C
$GPRMC,123719.000,A,5356.21540,N,02734.86211,E,00.00,252.7,290508,,,A*6C
$PORZD,A,015.2*3A
$GPGSA,A,3,28,27,23,13,07,25,,,,,,,,,,,,,,,,,,,06.2,04.7,04.0*0D
$GPGGA,123719.000,5356.21542,N,02734.86209,E,1,06,04.7,254.7,M,26.0,M,,*64
$GPRMC,123720.000,A,5356.21539,N,02734.86210,E,00.00,252.7,290508,,,A*69
$PORZD,A,015.2*3A
$GPGSV,4,1,14,02,12,247,,03,11,065,,06,10,045,,07,75,084,34*71
$GPGSV,4,2,14,08,59,224,,13,47,102,50,23,12,106,46,25,54,069,38*78
$GPGSV,4,3,14,27,83,102,31,28,05,181,46,33,17,229,,37,28,187,*7E
$GPGSV,4,4,14,39,28,183,,44,20,137,*71
$GPGSA,A,3,28,27,23,13,07,25,,,,,,,,,,,,,,,,,,,06.2,04.7,04.0*0D
$GPGGA,123720.000,5356.21542,N,02734.86206,E,1,06,04.7,254.7,M,26.0,M,,*61
$GPRMC,123721.000,A,5356.21540,N,02734.86205,E,00.00,252.7,290508,,,A*62
$PORZD,A,015.2*3A
$GPGSA,A,3,28,27,23,13,07,25,,,,,,,,,,,,,,,,,,,06.2,04.7,04.0*0D
$GPGGA,123721.000,5356.21543,N,02734.86202,E,1,06,04.7,254.7,M,26.0,M,,*65
$GPRMC,123722.000,A,5356.21541,N,02734.86202,E,00.00,252.7,290508,,,A*67
$PORZD,A,015.2*3A
$GPGSA,A,3,28,27,23,13,07,25,,,,,,,,,,,,,,,,,,,06.2,04.7,04.0*0D
$GPGGA,123722.000,5356.21543,N,02734.86198,E,1,06,04.7,254.7,M,26.0,M,,*66
$GPRMC,123723.000,A,5356.21541,N,02734.86198,E,00.00,252.7,290508,,,A*66
$PORZD,A,015.2*3A
$GPGSA,A,3,28,27,23,13,07,25,,,,,,,,,,,,,,,,,,,06.2,04.7,04.0*0D
$GPGGA,123723.000,5356.21546,N,02734.86203,E,1,06,04.7,254.7,M,26.0,M,,*63
$GPRMC,123724.000,A,5356.21543,N,02734.86203,E,00.00,252.7,290508,,,A*62
$PORZD,A,015.2*3A
$GPGSA,A,3,28,27,23,13,07,25,,,,,,,,,,,,,,,,,,,06.2,04.7,04.0*0D
$GPGGA,123724.000,5356.21548,N,02734.86207,E,1,06,04.7,254.8,M,26.0,M,,*61
$GPRMC,123725.000,A,5356.21544,N,02734.86208,E,00.00,252.7,290508,,,A*6F
$PORZD,A,015.2*3A
$GPGSA,A,3,28,27,23,13,07,25,,,,,,,,,,,,,,,,,,,06.2,04.7,04.0*0D
$GPGGA,123725.000,5356.21549,N,02734.86210,E,1,06,04.7,254.8,M,26.0,M,,*67
$GPRMC,123726.000,A,5356.21547,N,02734.86211,E,00.00,252.7,290508,,,A*67
$PORZD,A,015.2*3A
$GPGSV,4,1,14,02,12,247,,03,11,064,,06,10,044,,07,75,084,34*71
$GPGSV,4,2,14,08,59,224,,13,47,102,51,23,11,106,45,25,54,068,38*78
$GPGSV,4,3,14,27,83,101,31,28,05,181,46,33,17,229,,37,28,187,*7D
$GPGSV,4,4,14,39,28,183,,44,20,137,*71
$GPGSA,A,3,28,27,23,13,07,25,,,,,,,,,,,,,,,,,,,06.2,04.7,04.0*0D
$GPGGA,123726.000,5356.21550,N,02734.86213,E,1,06,04.7,254.8,M,26.0,M,,*6F
$GPRMC,123727.000,A,5356.21547,N,02734.86213,E,00.00,252.7,290508,,,A*64
$PORZD,A,015.1*39
$GPGSA,A,3,28,27,23,13,07,25,,,,,,,,,,,,,,,,,,,06.2,04.7,04.0*0D
$GPGGA,123727.000,5356.21552,N,02734.86214,E,1,06,04.7,254.9,M,26.0,M,,*6A
$GPRMC,123728.000,A,5356.21550,N,02734.86214,E,00.00,252.7,290508,,,A*6A
$PORZD,A,015.1*39
$GPGSA,A,3,28,27,23,13,07,25,,,,,,,,,,,,,,,,,,,06.2,04.7,04.0*0D
$GPGGA,123728.000,5356.21553,N,02734.86215,E,1,06,04.7,254.9,M,26.0,M,,*65
$GPRMC,123729.000,A,5356.21551,N,02734.86214,E,00.00,252.7,290508,,,A*6A
$PORZD,A,015.1*39
$GPGSA,A,3,28,27,23,13,07,25,,,,,,,,,,,,,,,,,,,06.2,04.7,04.0*0D
$GPGGA,123729.000,5356.21555,N,02734.86214,E,1,06,04.7,254.8,M,26.0,M,,*62
$GPRMC,123730.000,A,5356.21553,N,02734.86214,E,00.00,252.7,290508,,,A*60
$PORZD,A,015.1*39
$GPGSA,A,3,28,27,23,13,07,25,,,,,,,,,,,,,,,,,,,06.2,04.7,04.0*0D
$GPGGA,123730.000,5356.21557,N,02734.86213,E,1,06,04.7,254.8,M,26.0,M,,*6F
$GPRMC,123731.000,A,5356.21554,N,02734.86214,E,00.00,252.7,290508,,,A*66
$PORZD,A,015.1*39
$GPGSA,A,3,28,27,23,13,07,25,,,,,,,,,,,,,,,,,,,06.2,04.7,04.0*0D
$GPGGA,123731.000,5356.21557,N,02734.86212,E,1,06,04.7,254.8,M,26.0,M,,*6F
$GPRMC,123732.000,A,5356.21555,N,02734.86212,E,00.00,252.7,290508,,,A*62
$PORZD,A,015.1*39
$GPGSV,4,1,14,02,12,247,,03,11,064,,06,10,044,,07,75,084,34*71
$GPGSV,4,2,14,08,59,224,,13,47,102,51,23,11,106,46,25,54,068,38*7B
$GPGSV,4,3,14,27,83,101,32,28,05,181,45,33,17,229,,37,28,187,*7D
$GPGSV,4,4,14,39,28,183,,44,20,137,*71
$GPGSA,A,3,28,27,23,13,07,25,,,,,,,,,,,,,,,,,,,06.2,04.7,04.0*0D
$GPGGA,123732.000,5356.21558,N,02734.86210,E,1,06,04.7,254.8,M,26.0,M,,*61
$GPRMC,123733.000,A,5356.21556,N,02734.86211,E,00.00,252.7,290508,,,A*63
$PORZD,A,015.1*39
$GPGSA,A,3,28,27,23,13,07,25,,,,,,,,,,,,,,,,,,,06.2,04.7,04.0*0D
$GPGGA,123733.000,5356.21559,N,02734.86209,E,1,06,04.7,254.8,M,26.0,M,,*69
$GPRMC,123734.000,A,5356.21555,N,02734.86209,E,00.00,252.7,290508,,,A*6E
$PORZD,A,015.1*39
$GPGSA,A,3,28,27,23,13,07,25,,,,,,,,,,,,,,,,,,,06.2,04.7,04.0*0D
$GPGGA,123734.000,5356.21559,N,02734.86207,E,1,06,04.7,254.8,M,26.0,M,,*60
$GPRMC,123735.000,A,5356.21557,N,02734.86207,E,00.00,252.7,290508,,,A*63
$PORZD,A,015.1*39
$GPGSA,A,3,28,27,23,13,07,25,,,,,,,,,,,,,,,,,,,06.2,04.7,04.0*0D
$GPGGA,123735.000,5356.21559,N,02734.86206,E,1,06,04.7,254.8,M,26.0,M,,*60
$GPRMC,123736.000,A,5356.21556,N,02734.86206,E,00.00,252.7,290508,,,A*60
$PORZD,A,015.1*39
$GPGSA,A,3,28,27,23,13,07,25,,,,,,,,,,,,,,,,,,,06.2,04.7,04.0*0D
$GPGGA,123736.000,5356.21560,N,02734.86204,E,1,06,04.7,254.8,M,26.0,M,,*6B
$GPRMC,123737.000,A,5356.21558,N,02734.86205,E,00.00,252.7,290508,,,A*6C
$PORZD,A,015.1*39
$GPGSA,A,3,28,27,23,13,07,25,,,,,,,,,,,,,,,,,,,06.2,04.7,04.0*0D
$GPGGA,123737.000,5356.21560,N,02734.86202,E,1,06,04.7,254.8,M,26.0,M,,*6C
$GPRMC,123738.000,A,5356.21558,N,02734.86202,E,00.00,252.7,290508,,,A*64
$PORZD,A,015.1*39
$GPGSV,4,1,14,02,12,247,,03,11,064,18,06,10,044,,07,75,084,34*78
$GPGSV,4,2,14,08,59,224,,13,47,102,51,23,11,106,47,25,54,068,38*7A
$GPGSV,4,3,14,27,83,101,32,28,05,181,45,33,17,229,,37,28,187,*7D
$GPGSV,4,4,14,39,28,183,,44,20,137,*71
$GPGSA,A,3,28,27,23,13,07,25,,,,,,,,,,,,,,,,,,,06.2,04.7,04.0*0D
$GPGGA,123738.000,5356.21562,N,02734.86199,E,1,06,04.7,254.8,M,26.0,M,,*60
$GPRMC,123739.000,A,5356.21559,N,02734.86199,E,00.00,252.7,290508,,,A*65
$PORZD,A,015.2*3A
$GPGSA,A,3,28,27,23,13,07,25,,,,,,,,,,,,,,,,,,,06.2,04.7,04.0*0D
$GPGGA,123739.000,5356.21564,N,02734.86196,E,1,06,04.7,254.8,M,26.0,M,,*68
$GPRMC,123740.000,A,5356.21563,N,02734.86196,E,00.00,252.7,290508,,,A*6D
$PORZD,A,015.2*3A
$GPGSA,A,3,28,27,23,13,07,25,,,,,,,,,,,,,,,,,,,06.2,04.7,04.0*0D
$GPGGA,123740.000,5356.21567,N,02734.86194,E,1,06,04.7,254.7,M,26.0,M,,*68
$GPRMC,123741.000,A,5356.21564,N,02734.86194,E,00.00,252.7,290508,,,A*69
$PORZD,A,015.3*3B
$GPGSA,A,3,28,27,23,13,07,25,,,,,,,,,,,,,,,,,,,06.2,04.7,04.0*0D
$GPGGA,123741.000,5356.21568,N,02734.86192,E,1,06,04.7,254.7,M,26.0,M,,*60
$GPRMC,123742.000,A,5356.21566,N,02734.86192,E,00.00,252.7,290508,,,A*6E
$PORZD,A,015.3*3B
$GPGSA,A,3,28,27,23,13,07,25,,,,,,,,,,,,,,,,,,,06.2,04.7,04.0*0D
$GPGGA,123742.000,5356.21570,N,02734.86190,E,1,06,04.7,254.7,M,26.0,M,,*68
$GPRMC,123743.000,A,5356.21567,N,02734.86191,E,00.00,252.7,290508,,,A*6D
$PORZD,A,015.3*3B
$GPGSA,A,3,28,27,23,13,07,25,,,,,,,,,,,,,,,,,,,06.2,04.7,04.0*0D
$GPGGA,123743.000,5356.21571,N,02734.86189,E,1,06,04.7,254.6,M,26.0,M,,*61
$GPRMC,123744.000,A,5356.21568,N,02734.86189,E,00.00,252.7,290508,,,A*6C
$PORZD,A,015.3*3B
$GPGSV,4,1,14,02,12,247,,03,11,064,,06,10,044,,07,75,084,35*70
$GPGSV,4,2,14,08,59,224,,13,47,102,50,23,11,106,46,25,54,068,38*7A
$GPGSV,4,3,14,27,83,101,32,28,05,181,46,33,17,229,,37,28,187,*7E
$GPGSV,4,4,14,39,28,183,,44,20,137,*71
$GPGSA,A,3,28,27,23,13,07,25,,,,,,,,,,,,,,,,,,,06.2,04.7,04.0*0D
$GPGGA,123744.000,5356.21572,N,02734.86187,E,1,06,04.7,254.6,M,26.0,M,,*6B
$GPRMC,123745.000,A,5356.21570,N,02734.86186,E,00.00,252.7,290508,,,A*6B
$PORZD,A,015.3*3B
$GPGSA,A,3,28,27,23,13,07,25,,,,,,,,,,,,,,,,,,,06.2,04.7,04.0*0D
$GPGGA,123745.000,5356.21573,N,02734.86184,E,1,06,04.7,254.6,M,26.0,M,,*68
$GPRMC,123746.000,A,5356.21571,N,02734.86184,E,00.00,252.7,290508,,,A*6B
$PORZD,A,015.3*3B
$GPGSA,A,3,28,27,23,13,07,25,,,,,,,,,,,,,,,,,,,06.2,04.7,04.0*0D
$GPGGA,123746.000,5356.21574,N,02734.86181,E,1,06,04.7,254.6,M,26.0,M,,*69
$GPRMC,123747.000,A,5356.21571,N,02734.86182,E,00.00,252.7,290508,,,A*6C
$PORZD,A,015.3*3B
$GPGSA,A,3,28,27,23,13,07,25,,,,,,,,,,,,,,,,,,,06.2,04.7,04.0*0D
$GPGGA,123747.000,5356.21573,N,02734.86179,E,1,06,04.7,254.6,M,26.0,M,,*68
$GPRMC,123748.000,A,5356.21570,N,02734.86179,E,00.00,252.7,290508,,,A*66
$PORZD,A,015.3*3B
$GPGSA,A,3,28,27,23,13,07,25,,,,,,,,,,,,,,,,,,,06.2,04.7,04.0*0D
$GPGGA,123748.000,5356.21573,N,02734.86175,E,1,06,04.7,254.6,M,26.0,M,,*6B
$GPRMC,123749.000,A,5356.21572,N,02734.86175,E,00.00,252.7,290508,,,A*69
$PORZD,A,015.3*3B
$GPGSA,A,3,28,27,23,13,07,25,,,,,,,,,,,,,,,,,,,06.2,04.7,04.0*0D
$GPGGA,123749.000,5356.21573,N,02734.86173,E,1,06,04.7,254.6,M,26.0,M,,*6C
$GPRMC,123750.000,A,5356.21569,N,02734.86174,E,00.00,252.7,290508,,,A*6A
$PORZD,A,015.3*3B
$GPGSV,4,1,14,02,12,247,,03,11,064,,06,10,044,,07,75,084,35*70
$GPGSV,4,2,14,08,59,224,,13,47,102,50,23,11,106,46,25,54,068,38*7A
$GPGSV,4,3,14,27,83,101,32,28,05,181,47,33,17,229,,37,28,187,*7F
$GPGSV,4,4,14,39,28,183,,44,20,137,*71
$GPGSA,A,3,28,27,23,13,07,25,,,,,,,,,,,,,,,,,,,06.2,04.7,04.0*0D
$GPGGA,123750.000,5356.21570,N,02734.86172,E,1,06,04.7,254.6,M,26.0,M,,*66
$GPRMC,123751.000,A,5356.21568,N,02734.86171,E,00.00,252.7,290508,,,A*6F
$PORZD,A,015.3*3B
$GPGSA,A,3,28,27,23,13,07,25,,,,,,,,,,,,,,,,,,,06.2,04.7,04.0*0D
$GPGGA,123751.000,5356.21570,N,02734.86168,E,1,06,04.7,254.6,M,26.0,M,,*6C
$GPRMC,123752.000,A,5356.21567,N,02734.86169,E,00.00,252.7,290508,,,A*6A
$PORZD,A,015.3*3B
$GPGSA,A,3,28,27,23,13,07,25,,,,,,,,,,,,,,,,,,,06.2,04.7,04.0*0D
$GPGGA,123752.000,5356.21569,N,02734.86167,E,1,06,04.7,254.7,M,26.0,M,,*69
$GPRMC,123753.000,A,5356.21567,N,02734.86166,E,00.00,252.7,290508,,,A*64
$PORZD,A,015.4*3C
$GPGSA,A,3,28,27,23,13,07,25,,,,,,,,,,,,,,,,,,,06.2,04.7,04.0*0D
$GPGGA,123753.000,5356.21570,N,02734.86172,E,1,06,04.7,254.7,M,26.0,M,,*64
$GPRMC,123754.000,A,5356.21567,N,02734.86172,E,00.00,252.7,290508,,,A*66
$PORZD,A,015.4*3C
$GPGSA,A,3,28,27,23,13,07,25,,,,,,,,,,,,,,,,,,,06.2,04.7,04.0*0D
$GPGGA,123754.000,5356.21570,N,02734.86177,E,1,06,04.7,254.8,M,26.0,M,,*69
$GPRMC,123755.000,A,5356.21567,N,02734.86178,E,00.00,252.7,290508,,,A*6D
$PORZD,A,015.3*3B
$GPGSA,A,3,28,27,23,13,07,25,,,,,,,,,,,,,,,,,,,06.2,04.7,04.0*0D
$GPGGA,123755.000,5356.21570,N,02734.86182,E,1,06,04.7,254.8,M,26.0,M,,*62
$GPRMC,123756.000,A,5356.21567,N,02734.86183,E,00.00,252.7,290508,,,A*6A
$PORZD,A,015.3*3B
$GPGSV,4,1,15,02,12,246,,03,11,064,,06,10,044,,07,75,083,36*74
$GPGSV,4,2,15,08,60,224,,10,46,294,,13,46,102,50,23,11,106,46*7F
$GPGSV,4,3,15,25,54,068,38,27,83,099,32,28,06,181,46,33,17,229,*7F
$GPGSV,4,4,15,37,28,187,,39,28,183,,44,20,137,*40
$GPGSA,A,3,28,27,23,13,07,25,,,,,,,,,,,,,,,,,,,06.2,04.7,04.0*0D
$GPGGA,123756.000,5356.21570,N,02734.86187,E,1,06,04.7,254.8,M,26.0,M,,*64
$GPRMC,123757.000,A,5356.21567,N,02734.86186,E,00.00,252.7,290508,,,A*6E
$PORZD,A,015.3*3B
$GPGSA,A,3,28,27,23,13,07,25,,,,,,,,,,,,,,,,,,,06.2,04.7,04.0*0D
$GPGGA,123757.000,5356.21568,N,02734.86191,E,1,06,04.7,254.9,M,26.0,M,,*6A
$GPRMC,123758.000,A,5356.21565,N,02734.86193,E,00.00,252.7,290508,,,A*67
$PORZD,A,015.3*3B
$GPGSA,A,3,28,27,23,13,07,25,,,,,,,,,,,,,,,,,,,06.2,04.7,04.0*0D
$GPGGA,123758.000,5356.21567,N,02734.86196,E,1,06,04.7,254.9,M,26.0,M,,*6D
$GPRMC,123759.000,A,5356.21565,N,02734.86197,E,00.00,252.7,290508,,,A*62
$PORZD,A,015.3*3B
$GPGSA,A,3,28,27,23,13,07,25,,,,,,,,,,,,,,,,,,,06.2,04.7,04.0*0D
$GPGGA,123759.000,5356.21566,N,02734.86198,E,1,06,04.7,254.9,M,26.0,M,,*63
$GPRMC,123800.000,A,5356.21563,N,02734.86198,E,00.00,252.7,290508,,,A*68
$PORZD,A,015.3*3B
$GPGSA,A,3,28,27,23,13,07,25,,,,,,,,,,,,,,,,,,,06.2,04.7,04.0*0D
$GPGGA,123800.000,5356.21565,N,02734.86199,E,1,06,04.7,255.0,M,26.0,M,,*6A
$GPRMC,123801.000,A,5356.21563,N,02734.86200,E,00.00,252.7,290508,,,A*6B
$PORZD,A,015.3*3B
$GPGSA,A,3,28,27,23,13,07,25,,,,,,,,,,,,,,,,,,,06.2,04.7,04.0*0D
$GPGGA,123801.000,5356.21564,N,02734.86202,E,1,06,04.7,255.0,M,26.0,M,,*6B
$GPRMC,123802.000,A,5356.21562,N,02734.86202,E,00.00,252.7,290508,,,A*6B
$PORZD,A,015.3*3B
$GPGSV,4,1,15,02,12,246,,03,11,064,,06,10,044,,07,75,083,35*77
$GPGSV,4,2,15,08,60,224,,10,46,294,,13,46,102,50,23,11,106,46*7F
$GPGSV,4,3,15,25,54,068,38,27,83,099,32,28,06,181,46,33,17,229,*7F
$GPGSV,4,4,15,37,28,187,,39,28,183,,44,20,137,*40
$GPGSA,A,3,28,27,23,13,07,25,,,,,,,,,,,,,,,,,,,06.2,04.7,04.0*0D
$GPGGA,123802.000,5356.21563,N,02734.86203,E,1,06,04.7,255.0,M,26.0,M,,*6E
$GPRMC,123803.000,A,5356.21561,N,02734.86203,E,00.00,252.7,290508,,,A*68
$PORZD,A,015.3*3B
$GPGSA,A,3,28,27,23,13,07,25,,,,,,,,,,,,,,,,,,,06.2,04.7,04.0*0D
$GPGGA,123803.000,5356.21562,N,02734.86205,E,1,06,04.7,255.0,M,26.0,M,,*68
$GPRMC,123804.000,A,5356.21558,N,02734.86206,E,00.00,252.7,290508,,,A*60
$PORZD,A,015.3*3B
$GPGSA,A,3,28,27,23,13,07,25,,,,,,,,,,,,,,,,,,,06.2,04.7,04.0*0D
$GPGGA,123804.000,5356.21559,N,02734.86207,E,1,06,04.7,255.1,M,26.0,M,,*64
$GPRMC,123805.000,A,5356.21557,N,02734.86206,E,00.00,252.7,290508,,,A*6E
$PORZD,A,015.3*3B
$GPGSA,A,3,28,27,23,13,07,25,,,,,,,,,,,,,,,,,,,06.2,04.7,04.0*0D
$GPGGA,123805.000,5356.21558,N,02734.86207,E,1,06,04.7,255.1,M,26.0,M,,*64
$GPRMC,123806.000,A,5356.21555,N,02734.86207,E,00.00,252.7,290508,,,A*6E
$PORZD,A,015.3*3B
$GPGSA,A,3,28,27,23,13,07,25,,,,,,,,,,,,,,,,,,,06.2,04.7,04.0*0D
$GPGGA,123806.000,5356.21555,N,02734.86208,E,1,06,04.7,255.1,M,26.0,M,,*65
$GPRMC,123807.000,A,5356.21552,N,02734.86210,E,00.00,252.7,290508,,,A*6E
$PORZD,A,015.3*3B
$GPGSA,A,3,28,27,23,13,07,25,,,,,,,,,,,,,,,,,,,06.2,04.7,04.0*0D
$GPGGA,123807.000,5356.21553,N,02734.86210,E,1,06,04.7,255.1,M,26.0,M,,*6B
$GPRMC,123808.000,A,5356.21551,N,02734.86210,E,00.00,252.7,290508,,,A*62
$PORZD,A,015.3*3B
$GPGSV,4,1,15,02,12,246,,03,11,064,,06,10,044,,07,75,083,35*77
$GPGSV,4,2,15,08,60,224,,10,46,294,,13,46,102,50,23,11,106,46*7F
$GPGSV,4,3,15,25,54,068,37,27,83,099,32,28,06,181,46,33,17,229,*70
$GPGSV,4,4,15,37,28,187,,39,28,183,,44,20,137,*40
$GPGSA,A,3,28,27,23,13,07,25,,,,,,,,,,,,,,,,,,,06.2,04.7,04.0*0D
$GPGGA,123808.000,5356.21552,N,02734.86211,E,1,06,04.7,255.1,M,26.0,M,,*64
$GPRMC,123809.000,A,5356.21549,N,02734.86212,E,00.00,252.7,290508,,,A*68
$PORZD,A,015.2*3A
$GPGSA,A,3,28,27,23,13,07,25,,,,,,,,,,,,,,,,,,,06.2,04.7,04.0*0D
$GPGGA,123809.000,5356.21550,N,02734.86212,E,1,06,04.7,255.1,M,26.0,M,,*64
$GPRMC,123810.000,A,5356.21548,N,02734.86212,E,00.00,252.7,290508,,,A*61
$PORZD,A,015.2*3A
$GPGSA,A,3,28,27,23,13,07,25,,,,,,,,,,,,,,,,,,,06.2,04.7,04.0*0D
$GPGGA,123810.000,5356.21550,N,02734.86211,E,1,06,04.7,255.1,M,26.0,M,,*6F
$GPRMC,123811.000,A,5356.21548,N,02734.86211,E,00.00,252.7,290508,,,A*63
$PORZD,A,015.2*3A
$GPGSA,A,3,28,27,23,13,07,25,,,,,,,,,,,,,,,,,,,06.2,04.7,04.0*0D
$GPGGA,123811.000,5356.21549,N,02734.86210,E,1,06,04.7,255.1,M,26.0,M,,*67
$GPRMC,123812.000,A,5356.21545,N,02734.86211,E,00.00,252.7,290508,,,A*6D
$PORZD,A,015.2*3A
$GPGSA,A,3,28,27,23,13,07,25,,,,,,,,,,,,,,,,,,,06.2,04.7,04.0*0D
$GPGGA,123812.000,5356.21548,N,02734.86209,E,1,06,04.7,255.1,M,26.0,M,,*6D
$GPRMC,123813.000,A,5356.21545,N,02734.86210,E,00.00,252.7,290508,,,A*6D
$PORZD,A,015.2*3A
$GPGSA,A,3,28,27,23,13,07,25,,,,,,,,,,,,,,,,,,,06.1,04.7,04.0*0E
$GPGGA,123813.000,5356.21548,N,02734.86207,E,1,06,04.7,255.1,M,26.0,M,,*62
$GPRMC,123814.000,A,5356.21546,N,02734.86207,E,00.00,252.7,290508,,,A*6F
$PORZD,A,015.2*3A
$GPGSV,4,1,15,02,12,246,,03,11,064,,06,10,044,,07,75,083,36*74
$GPGSV,4,2,15,08,60,224,,10,46,294,,13,46,102,50,23,11,106,45*7C
$GPGSV,4,3,15,25,54,068,38,27,83,099,32,28,06,181,45,33,17,229,*7C
$GPGSV,4,4,15,37,28,187,,39,28,183,,44,20,137,*40
$GPGSA,A,3,28,27,23,13,07,25,,,,,,,,,,,,,,,,,,,06.1,04.7,04.0*0E
$GPGGA,123814.000,5356.21548,N,02734.86206,E,1,06,04.7,255.1,M,26.0,M,,*64
