$SkyTraq,Venus6
$Kernel,v1.4.23,000006FE,19324205,F,16.367667MHz
$ver,011023,rev,090210
$GPVTG,287.04,T,,M,0.774,N,1.435,K,A*33
$GPGGA,085032.00,5355.17581,N,02730.04649,E,1,04,17.30,267.5,M,25.0,M,,*65
$GPGSA,A,3,18,21,24,15,,,,,,,,,18.95,17.30,7.74*0E
$GPGSV,3,1,12,03,67,251,,06,72,220,,08,07,331,24,14,06,151,*71
$GPGSV,3,2,12,15,15,032,46,16,15,204,,18,55,074,42,19,47,295,20*76
$GPGSV,3,3,12,21,33,087,48,22,67,157,,24,02,084,40,26,18,131,34*7D
$GPGLL,5355.17581,N,02730.04649,E,085032.00,A,A*60
$GPRMC,085033.00,A,5355.17512,N,02730.04479,E,0.835,284.07,050210,,,A*6C
$GPVTG,284.07,T,,M,0.835,N,1.547,K,A*3D
$GPGGA,085033.00,5355.17512,N,02730.04479,E,1,04,17.31,266.9,M,25.0,M,,*63
$GPGSA,A,3,18,21,24,15,,,,,,,,,18.96,17.31,7.74*0C
$GPGSV,3,1,12,03,67,251,,06,72,220,,08,07,331,26,14,06,151,*73
$GPGSV,3,2,12,15,15,032,47,16,15,204,,18,55,074,43,19,47,295,19*7C
$GPGSV,3,3,12,21,33,087,49,22,67,157,,24,02,084,41,26,18,131,36*7F
$GPGLL,5355.17512,N,02730.04479,E,085033.00,A,A*6A
$GPRMC,085034.00,A,5355.17453,N,02730.04323,E,0.492,281.09,050210,,,A*6D
$GPVTG,281.09,T,,M,0.492,N,0.911,K,A*39
$GPGGA,085034.00,5355.17453,N,02730.04323,E,1,04,17.31,266.2,M,25.0,M,,*63
$GPGSA,A,3,18,21,24,15,,,,,,,,,18.96,17.31,7.74*0C
$GPGSV,3,1,12,03,67,251,,06,72,220,,08,07,331,26,14,06,151,*73
$GPGSV,3,2,12,15,15,032,47,16,15,204,,18,55,074,43,19,47,295,18*7D
$GPGSV,3,3,12,21,33,087,48,22,67,157,,24,02,084,40,26,18,131,35*7C
$GPGLL,5355.17453,N,02730.04323,E,085034.00,A,A*61
$GPRMC,085035.00,A,5355.17396,N,02730.04163,E,0.355,280.76,050210,,,A*61
$GPVTG,280.76,T,,M,0.355,N,0.657,K,A*31
$GPGGA,085035.00,5355.17396,N,02730.04163,E,1,04,17.32,265.6,M,25.0,M,,*6E
$GPGSA,A,3,18,21,24,15,,,,,,,,,18.97,17.32,7.74*0E
$GPGSV,3,1,12,03,67,251,,06,72,220,,08,07,331,26,14,06,151,*73
$GPGSV,3,2,12,15,15,032,47,16,15,204,,18,55,074,43,19,47,295,16*73
$GPGSV,3,3,12,21,33,087,47,22,67,157,,24,02,084,40,26,18,131,35*73
$GPGLL,5355.17396,N,02730.04163,E,085035.00,A,A*68
$GPRMC,085036.00,A,5355.17332,N,02730.04006,E,0.831,278.54,050210,,,A*60
$GPVTG,278.54,T,,M,0.831,N,1.540,K,A*3B
$GPGGA,085036.00,5355.17332,N,02730.04006,E,1,04,17.33,265.3,M,25.0,M,,*65
$GPGSA,A,3,18,21,24,15,,,,,,,,,18.98,17.33,7.74*00
$GPGSV,3,1,12,03,67,251,28,06,72,220,,08,07,331,27,14,06,151,*78
$GPGSV,3,2,12,15,15,032,47,16,15,204,,18,55,074,43,19,47,295,14*71
$GPGSV,3,3,12,21,33,087,47,22,67,157,,24,02,084,41,26,18,131,36*71
$GPGLL,5355.17332,N,02730.04006,E,085036.00,A,A*67
$GPRMC,085037.00,A,5355.17281,N,02730.03900,E,0.252,277.72,050210,,,A*64
$GPVTG,277.72,T,,M,0.252,N,0.467,K,A*3A
$GPGGA,085037.00,5355.17281,N,02730.03900,E,1,04,17.34,265.1,M,25.0,M,,*60
$GPGSA,A,3,18,21,24,15,,,,,,,,,18.98,17.34,7.74*07
$GPGSV,3,1,12,03,67,251,,06,72,220,,08,07,331,27,14,06,151,*72
$GPGSV,3,2,12,15,15,032,48,16,15,204,,18,55,074,43,19,47,295,13*79
$GPGSV,3,3,12,21,33,087,47,22,67,157,,24,02,084,41,26,18,131,36*71
$GPGLL,5355.17281,N,02730.03900,E,085037.00,A,A*67
$GPRMC,085038.00,A,5355.17239,N,02730.03826,E,0.115,,050210,,,A*74
$GPVTG,,T,,M,0.115,N,0.212,K,A*27
$GPGGA,085038.00,5355.17239,N,02730.03826,E,1,04,17.34,265.1,M,25.0,M,,*69
$GPGSA,A,3,18,21,24,15,,,,,,,,,18.99,17.34,7.74*06
$GPGSV,3,1,12,03,67,251,,06,72,220,25,08,07,331,28,14,06,151,*7A
$GPGSV,3,2,12,15,15,032,47,16,15,204,,18,55,074,43,19,47,295,15*70
$GPGSV,3,3,12,21,33,087,47,22,67,157,,24,02,084,41,26,18,131,35*72
$GPGLL,5355.17239,N,02730.03826,E,085038.00,A,A*6E
$GPRMC,085039.00,A,5355.17198,N,02730.03759,E,0.137,,050210,,,A*7A
$GPVTG,,T,,M,0.137,N,0.254,K,A*25
$GPGGA,085039.00,5355.17198,N,02730.03759,E,1,04,17.35,265.1,M,25.0,M,,*66
$GPGSA,A,3,18,21,24,15,,,,,,,,,19.00,17.35,7.74*06
$GPGSV,3,1,12,03,67,251,28,06,72,220,24,08,07,331,28,14,06,151,*71
$GPGSV,3,2,12,15,15,032,47,16,15,204,,18,55,074,43,19,47,295,16*73
$GPGSV,3,3,12,21,33,087,47,22,67,157,,24,02,084,40,26,18,131,35*73
$GPGLL,5355.17198,N,02730.03759,E,085039.00,A,A*60
$GPRMC,085040.00,A,5355.17137,N,02730.03625,E,0.168,,050210,,,A*71
$GPVTG,,T,,M,0.168,N,0.311,K,A*2F
$GPGGA,085040.00,5355.17137,N,02730.03625,E,1,04,17.36,265.1,M,25.0,M,,*64
$GPGSA,A,3,18,21,24,15,,,,,,,,,19.01,17.36,7.74*04
$GPGSV,3,1,12,03,67,251,27,06,72,220,23,08,07,331,28,14,06,151,*79
$GPGSV,3,2,12,15,15,032,45,16,15,204,,18,55,074,42,19,47,295,16*70
$GPGSV,3,3,12,21,33,087,45,22,67,157,27,24,02,084,39,26,18,131,33*7C
$GPGLL,5355.17137,N,02730.03625,E,085040.00,A,A*61
$GPRMC,085041.00,A,5355.17092,N,02730.03549,E,0.298,274.51,050210,,,A*60
$GPVTG,274.51,T,,M,0.298,N,0.552,K,A*39
$GPGGA,085041.00,5355.17092,N,02730.03549,E,1,04,17.37,265.0,M,25.0,M,,*62
$GPGSA,A,3,18,21,24,15,,,,,,,,,19.01,17.37,7.74*05
$GPGSV,3,1,12,03,67,250,27,06,72,220,23,08,07,331,28,14,06,151,*78
$GPGSV,3,2,12,15,15,032,46,16,15,204,,18,55,074,43,19,47,295,17*73
$GPGSV,3,3,12,21,33,087,46,22,67,157,27,24,02,084,39,26,18,131,33*7F
$GPGLL,5355.17092,N,02730.03549,E,085041.00,A,A*67
$GPRMC,085042.00,A,5355.17075,N,02730.03565,E,0.253,275.14,050210,,,A*63
$GPVTG,275.14,T,,M,0.253,N,0.469,K,A*37
$GPGGA,085042.00,5355.17075,N,02730.03565,E,1,04,17.37,265.0,M,25.0,M,,*66
$GPGSA,A,3,18,21,24,15,,,,,,,,,19.02,17.37,7.74*06
$GPGSV,3,1,12,03,67,250,26,06,72,220,22,08,07,331,28,14,06,151,*78
$GPGSV,3,2,12,15,15,032,46,16,15,204,,18,55,074,44,19,47,295,16*75
$GPGSV,3,3,12,21,33,087,46,22,67,157,27,24,02,084,39,26,18,131,32*7E
$GPGLL,5355.17075,N,02730.03565,E,085042.00,A,A*63
$GPRMC,085043.00,A,5355.17087,N,02730.03666,E,0.177,,050210,,,A*71
$GPVTG,,T,,M,0.177,N,0.327,K,A*24
$GPGGA,085043.00,5355.17087,N,02730.03666,E,1,04,17.38,265.2,M,25.0,M,,*67
$GPGSA,A,3,18,21,24,15,,,,,,,,,19.03,17.38,7.74*08
$GPGSV,3,1,12,03,67,250,,06,72,220,21,08,07,331,28,14,06,151,*7F
$GPGSV,3,2,12,15,15,032,45,16,15,204,,18,55,074,44,19,47,295,16*76
$GPGSV,3,3,12,21,33,087,46,22,67,157,28,24,02,084,39,26,18,131,30*73
$GPGLL,5355.17087,N,02730.03666,E,085043.00,A,A*6F
$GPRMC,085044.00,A,5355.17136,N,02730.03861,E,0.309,281.42,050210,,,A*6C
$GPVTG,281.42,T,,M,0.309,N,0.572,K,A*3A
$GPGGA,085044.00,5355.17136,N,02730.03861,E,1,04,17.39,265.4,M,25.0,M,,*65
$GPGSA,A,3,18,21,24,15,,,,,,,,,19.03,17.39,7.74*09
$GPGSV,3,1,12,03,67,250,,06,72,219,19,08,07,331,29,14,06,151,*7F
$GPGSV,3,2,12,15,15,032,45,16,15,204,,18,55,074,44,19,47,295,15*75
$GPGSV,3,3,12,21,33,087,46,22,67,157,28,24,02,084,39,26,18,131,28*7A
$GPGLL,5355.17136,N,02730.03861,E,085044.00,A,A*6A
$GPRMC,085045.00,A,5355.17209,N,02730.04094,E,0.774,290.35,050210,,,A*69
$GPVTG,290.35,T,,M,0.774,N,1.434,K,A*36
$GPGGA,085045.00,5355.17209,N,02730.04094,E,1,04,17.39,265.7,M,25.0,M,,*6D
$GPGSA,A,3,18,21,24,15,,,,,,,,,19.04,17.39,7.74*0E
$GPGSV,3,1,12,03,67,250,,06,72,219,17,08,07,331,28,14,06,151,*70
$GPGSV,3,2,12,15,15,032,44,16,15,204,,18,55,074,44,19,47,295,14*75
$GPGSV,3,3,12,21,33,087,46,22,67,157,28,24,02,084,39,26,18,131,27*75
$GPGLL,5355.17209,N,02730.04094,E,085045.00,A,A*61
$GPRMC,085046.00,A,5355.17280,N,02730.04292,E,0.376,298.76,050210,,,A*66
$GPVTG,298.76,T,,M,0.376,N,0.697,K,A*35
$GPGGA,085046.00,5355.17280,N,02730.04292,E,1,04,17.40,266.0,M,25.0,M,,*61
$GPGSA,A,3,18,21,24,15,,,,,,,,,19.05,17.40,7.74*01
$GPGSV,3,1,12,03,67,250,,06,72,219,14,08,07,331,28,14,06,151,*73
$GPGSV,3,2,12,15,15,032,45,16,15,204,,18,55,074,45,19,47,295,15*74
$GPGSV,3,3,12,21,33,087,46,22,67,157,30,24,02,084,40,26,18,131,27*72
$GPGLL,5355.17280,N,02730.04292,E,085046.00,A,A*67
$GPRMC,085047.00,A,5355.17358,N,02730.04516,E,0.431,306.60,050210,,,A*6D
$GPVTG,306.60,T,,M,0.431,N,0.799,K,A*3F
$GPGGA,085047.00,5355.17358,N,02730.04516,E,1,04,17.41,266.5,M,25.0,M,,*6B
$GPGSA,A,3,18,21,24,15,,,,,,,,,19.05,17.41,7.74*00
$GPGSV,3,1,12,03,67,250,26,06,72,219,11,08,07,331,28,14,06,151,*72
$GPGSV,3,2,12,15,15,032,45,16,15,204,,18,55,074,45,19,47,295,15*74
$GPGSV,3,3,12,21,33,087,46,22,67,157,30,24,02,084,40,26,18,131,29*7C
$GPGLL,5355.17358,N,02730.04516,E,085047.00,A,A*69
$GPRMC,085048.00,A,5355.17430,N,02730.04697,E,0.219,311.70,050210,,,A*6A
$GPVTG,311.70,T,,M,0.219,N,0.406,K,A*31
$GPGGA,085048.00,5355.17430,N,02730.04697,E,1,04,17.42,266.9,M,25.0,M,,*68
$GPGSA,A,3,18,21,24,15,,,,,,,,,19.06,17.42,7.74*00
$GPGSV,3,1,12,03,67,250,26,06,72,219,08,08,07,331,27,14,06,151,*75
$GPGSV,3,2,12,15,15,032,45,16,15,204,,18,55,074,46,19,47,295,14*76
$GPGSV,3,3,12,21,33,087,47,22,67,157,29,24,02,084,41,26,18,131,32*7E
$GPGLL,5355.17430,N,02730.04697,E,085048.00,A,A*65
$GPRMC,085049.00,A,5355.17510,N,02730.04910,E,0.590,317.91,050210,,,A*67
$GPVTG,317.91,T,,M,0.590,N,1.092,K,A*36
$GPGGA,085049.00,5355.17510,N,02730.04910,E,1,04,17.42,267.4,M,25.0,M,,*66
$GPGSA,A,3,18,21,24,15,,,,,,,,,19.07,17.42,7.74*01
$GPGSV,3,1,12,03,67,250,26,06,72,219,,08,07,331,27,14,06,151,23*7C
$GPGSV,3,2,12,15,15,032,44,16,15,204,,18,55,074,46,19,47,295,14*77
$GPGSV,3,3,12,21,33,087,47,22,67,157,29,24,02,084,41,26,18,131,33*7F
$GPGLL,5355.17510,N,02730.04910,E,085049.00,A,A*67
$GPRMC,085050.00,A,5355.17582,N,02730.05082,E,0.273,321.57,050210,,,A*62
$GPVTG,321.57,T,,M,0.273,N,0.505,K,A*39
$GPGGA,085050.00,5355.17582,N,02730.05082,E,1,04,17.43,267.9,M,25.0,M,,*6A
$GPGSA,A,3,18,21,24,15,,,,,,,,,19.07,17.43,7.74*00
$GPGSV,3,1,12,03,67,250,25,06,72,219,,08,07,331,26,14,06,151,*7F
$GPGSV,3,2,12,15,15,032,45,16,15,204,,18,55,074,46,19,47,295,15*77
$GPGSV,3,3,12,21,33,087,47,22,67,157,29,24,02,084,41,26,18,131,34*78
$GPGLL,5355.17582,N,02730.05082,E,085050.00,A,A*67
$GPRMC,085051.00,A,5355.17632,N,02730.05184,E,0.307,327.68,050210,,,A*64
$GPVTG,327.68,T,,M,0.307,N,0.569,K,A*3B
$GPGGA,085051.00,5355.17632,N,02730.05184,E,1,04,17.44,268.3,M,25.0,M,,*66
$GPGSA,A,3,18,21,24,15,,,,,,,,,19.08,17.44,7.74*08
$GPGSV,3,1,12,03,67,250,,06,72,219,,08,07,331,26,14,06,151,*78
$GPGSV,3,2,12,15,15,032,45,16,15,204,,18,55,074,46,19,47,295,16*74
$GPGSV,3,3,12,21,33,087,47,22,67,157,28,24,02,084,41,26,18,131,34*79
$GPGLL,5355.17632,N,02730.05184,E,085051.00,A,A*69
$GPRMC,085052.00,A,5355.17477,N,02730.04765,E,0.521,322.69,050210,,,A*6A
$GPVTG,322.69,T,,M,0.521,N,0.966,K,A*3E
$GPGGA,085052.00,5355.17477,N,02730.04765,E,1,05,3.57,266.0,M,25.0,M,,*55
$GPGSA,A,3,18,21,26,24,15,,,,,,,,4.12,3.57,2.06*0C
$GPGSV,3,1,12,03,67,250,,06,72,219,,08,07,331,26,14,06,151,26*7C
$GPGSV,3,2,12,15,15,032,44,16,15,204,,18,55,074,46,19,47,295,16*75
$GPGSV,3,3,12,21,33,087,47,22,67,157,28,24,02,084,41,26,18,130,35*79
$GPGLL,5355.17477,N,02730.04765,E,085052.00,A,A*61
$GPRMC,085053.00,A,5355.16685,N,02730.02924,E,0.116,,050210,,,A*7A
$GPVTG,,T,,M,0.116,N,0.215,K,A*23
$GPGGA,085053.00,5355.16685,N,02730.02924,E,1,04,4.99,244.3,M,25.0,M,,*50
$GPGSA,A,3,18,21,26,15,,,,,,,,,5.48,4.99,2.26*03
$GPGSV,3,1,12,03,67,250,,06,72,219,,08,07,331,25,14,06,151,25*7C
$GPGSV,3,2,12,15,14,032,43,16,15,204,,18,55,074,45,19,47,295,18*7E
$GPGSV,3,3,12,21,33,087,46,22,67,157,28,24,02,084,41,26,18,130,34*79
$GPGLL,5355.16685,N,02730.02924,E,085053.00,A,A*63
$GPRMC,085054.00,A,5355.16719,N,02730.02813,E,0.044,,050210,,,A*7A
$GPVTG,,T,,M,0.044,N,0.082,K,A*29
$GPGGA,085054.00,5355.16719,N,02730.02813,E,1,04,4.99,243.9,M,25.0,M,,*5B
$GPGSA,A,3,18,21,26,15,,,,,,,,,5.48,4.99,2.26*03
$GPGSV,3,1,12,03,67,250,,06,72,219,,08,07,331,24,14,06,151,25*7D
$GPGSV,3,2,12,15,14,032,44,16,14,204,,18,55,074,46,19,47,295,17*74
$GPGSV,3,3,12,21,33,087,47,22,67,157,27,24,02,084,41,26,18,130,33*70
$GPGLL,5355.16719,N,02730.02813,E,085054.00,A,A*65
$GPRMC,085055.00,A,5355.16726,N,02730.02707,E,0.025,,050210,,,A*7A
$GPVTG,,T,,M,0.025,N,0.047,K,A*27
$GPGGA,085055.00,5355.16726,N,02730.02707,E,1,04,4.99,243.9,M,25.0,M,,*5C
$GPGSA,A,3,18,21,26,15,,,,,,,,,5.48,4.99,2.26*03
$GPGSV,3,1,12,03,67,250,,06,72,219,25,08,07,331,23,14,06,151,24*7C
$GPGSV,3,2,12,15,14,032,43,16,14,204,,18,55,074,46,19,47,295,17*73
$GPGSV,3,3,12,21,33,087,48,22,67,157,26,24,02,084,41,26,18,130,33*7E
$GPGLL,5355.16726,N,02730.02707,E,085055.00,A,A*62
$GPRMC,085056.00,A,5355.16743,N,02730.02569,E,0.104,,050210,,,A*72
$GPVTG,,T,,M,0.104,N,0.192,K,A*2C
$GPGGA,085056.00,5355.16743,N,02730.02569,E,1,04,4.99,244.1,M,25.0,M,,*59
$GPGSA,A,3,18,21,26,15,,,,,,,,,5.48,4.99,2.27*02
$GPGSV,3,1,12,03,67,250,,06,72,219,24,08,07,331,23,14,06,151,24*7D
$GPGSV,3,2,12,15,14,032,43,16,14,204,,18,55,073,46,19,47,295,16*75
$GPGSV,3,3,12,21,33,087,48,22,67,157,25,24,02,084,41,26,18,130,33*7D
$GPGLL,5355.16743,N,02730.02569,E,085056.00,A,A*68
$GPRMC,085057.00,A,5355.16755,N,02730.02418,E,0.054,,050210,,,A*77
$GPVTG,,T,,M,0.054,N,0.100,K,A*23
$GPGGA,085057.00,5355.16755,N,02730.02418,E,1,04,4.99,244.3,M,25.0,M,,*5A
$GPGSA,A,3,18,21,26,15,,,,,,,,,5.48,4.99,2.27*02
$GPGSV,3,1,12,03,67,250,,06,72,219,24,08,07,331,25,14,06,151,25*7A
$GPGSV,3,2,12,15,14,032,44,16,14,204,,18,55,073,47,19,48,295,15*7F
$GPGSV,3,3,12,21,33,087,50,22,67,157,24,24,02,084,42,26,18,130,35*70
$GPGLL,5355.16755,N,02730.02418,E,085057.00,A,A*69
$GPRMC,085058.00,A,5355.16773,N,02730.02276,E,0.083,,050210,,,A*78
$GPVTG,,T,,M,0.083,N,0.154,K,A*28
$GPGGA,085058.00,5355.16773,N,02730.02276,E,1,04,4.99,244.3,M,25.0,M,,*5F
$GPGSA,A,3,18,21,26,15,,,,,,,,,5.48,4.99,2.27*02
$GPGSV,3,1,12,03,67,250,,06,72,219,22,08,07,331,26,14,06,151,24*7E
$GPGSV,3,2,12,15,14,032,43,16,14,204,,18,55,073,46,19,48,295,13*7F
$GPGSV,3,3,12,21,33,087,49,22,67,157,,24,02,084,42,26,18,130,34*7F
$GPGLL,5355.16773,N,02730.02276,E,085058.00,A,A*6C
$GPRMC,085059.00,A,5355.16784,N,02730.02176,E,0.038,,050210,,,A*72
$GPVTG,,T,,M,0.038,N,0.071,K,A*2E
$GPGGA,085059.00,5355.16784,N,02730.02176,E,1,04,4.99,244.2,M,25.0,M,,*54
$GPGSA,A,3,18,21,26,15,,,,,,,,,5.48,4.99,2.27*02
$GPGSV,3,1,12,03,67,250,,06,72,219,19,08,07,331,26,14,06,151,24*76
$GPGSV,3,2,12,15,14,032,43,16,14,204,,18,55,073,46,19,48,295,12*7E
$GPGSV,3,3,12,21,32,087,49,22,67,157,23,24,02,084,42,26,18,130,34*7F
$GPGLL,5355.16784,N,02730.02176,E,085059.00,A,A*66
$GPRMC,085100.00,A,5355.16789,N,02730.02093,E,0.059,,050210,,,A*7F
$GPVTG,,T,,M,0.059,N,0.109,K,A*27
$GPGGA,085100.00,5355.16789,N,02730.02093,E,1,04,4.99,244.3,M,25.0,M,,*5F
$GPGSA,A,3,18,21,26,15,,,,,,,,,5.48,4.99,2.27*02
$GPGSV,3,1,12,03,67,250,27,06,72,219,17,08,07,331,27,14,06,151,23*7B
$GPGSV,3,2,12,15,14,032,44,16,14,204,,18,55,073,46,19,48,295,14*7F
$GPGSV,3,3,12,21,32,087,49,22,67,156,23,24,02,084,41,26,18,130,34*7D
$GPGLL,5355.16789,N,02730.02093,E,085100.00,A,A*6C
$GPRMC,085101.00,A,5355.16793,N,02730.02037,E,0.033,,050210,,,A*77
$GPVTG,,T,,M,0.033,N,0.062,K,A*27
$GPGGA,085101.00,5355.16793,N,02730.02037,E,1,04,4.99,244.4,M,25.0,M,,*5C
$GPGSA,A,3,18,21,26,15,,,,,,,,,5.48,4.99,2.27*02
$GPGSV,3,1,12,03,67,250,25,06,72,219,15,08,07,331,27,14,06,151,22*7A
$GPGSV,3,2,12,15,14,032,44,16,14,204,,18,55,073,46,19,48,295,15*7E
$GPGSV,3,3,12,21,32,087,49,22,67,156,24,24,02,084,41,26,18,130,34*7A
$GPGLL,5355.16793,N,02730.02037,E,085101.00,A,A*68
$GPRMC,085102.00,A,5355.16792,N,02730.01981,E,0.245,317.09,050210,,,A*63
$GPVTG,317.09,T,,M,0.245,N,0.453,K,A*30
$GPGGA,085102.00,5355.16792,N,02730.01981,E,1,04,4.99,244.5,M,25.0,M,,*58
$GPGSA,A,3,18,21,26,15,,,,,,,,,5.48,4.99,2.27*02
$GPGSV,3,1,12,03,67,250,25,06,72,219,17,08,07,331,28,14,06,151,20*75
$GPGSV,3,2,12,15,14,032,44,16,14,204,,18,55,073,46,19,48,295,15*7E
$GPGSV,3,3,12,21,32,087,49,22,67,156,25,24,01,085,41,26,18,130,33*7E
$GPGLL,5355.16792,N,02730.01981,E,085102.00,A,A*6D
$GPRMC,085103.00,A,5355.16789,N,02730.01903,E,0.466,312.02,050210,,,A*6B
$GPVTG,312.02,T,,M,0.466,N,0.863,K,A*36
$GPGGA,085103.00,5355.16789,N,02730.01903,E,1,04,4.99,244.5,M,25.0,M,,*59
$GPGSA,A,3,18,21,26,15,,,,,,,,,5.48,4.99,2.27*02
$GPGSV,3,1,12,03,67,250,24,06,72,219,20,08,07,331,28,14,06,151,*72
$GPGSV,3,2,12,15,14,032,44,16,14,204,,18,55,073,46,19,48,295,15*7E
$GPGSV,3,3,12,21,32,087,49,22,67,156,25,24,01,085,41,26,18,130,33*7E
$GPGLL,5355.16789,N,02730.01903,E,085103.00,A,A*6C
$GPRMC,085104.00,A,5355.16784,N,02730.01827,E,0.519,307.35,050210,,,A*6F
$GPVTG,307.35,T,,M,0.519,N,0.962,K,A*3F
$GPGGA,085104.00,5355.16784,N,02730.01827,E,1,04,4.99,244.3,M,25.0,M,,*52
$GPGSA,A,3,18,21,26,15,,,,,,,,,5.48,4.99,2.27*02
$GPGSV,3,1,12,03,67,250,24,06,72,219,21,08,07,331,28,14,06,151,*73
$GPGSV,3,2,12,15,14,032,44,16,14,204,,18,55,073,46,19,48,295,14*7F
$GPGSV,3,3,12,21,32,087,49,22,67,156,25,24,01,085,41,26,18,130,33*7E
$GPGLL,5355.16784,N,02730.01827,E,085104.00,A,A*61
$GPRMC,085105.00,A,5355.16779,N,02730.01767,E,0.466,302.81,050210,,,A*64
$GPVTG,302.81,T,,M,0.466,N,0.863,K,A*3C
$GPGGA,085105.00,5355.16779,N,02730.01767,E,1,04,4.99,244.1,M,25.0,M,,*58
$GPGSA,A,3,18,21,26,15,,,,,,,,,5.48,4.99,2.27*02
$GPGSV,3,1,12,03,67,250,24,06,72,219,21,08,07,331,28,14,06,151,*73
$GPGSV,3,2,12,15,14,032,43,16,14,204,,18,55,073,46,19,48,295,12*7E
$GPGSV,3,3,12,21,32,087,49,22,67,156,24,24,01,085,42,26,18,130,33*7C
$GPGLL,5355.16779,N,02730.01767,E,085105.00,A,A*69
$GPRMC,085106.00,A,5355.16774,N,02730.01722,E,0.239,298.38,050210,,,A*67
$GPVTG,298.38,T,,M,0.239,N,0.443,K,A*3E
$GPGGA,085106.00,5355.16774,N,02730.01722,E,1,04,4.99,243.8,M,25.0,M,,*59
$GPGSA,A,3,18,21,26,15,,,,,,,,,5.48,4.99,2.27*02
$GPGSV,3,1,12,03,67,250,24,06,72,219,20,08,07,331,27,14,06,151,*7D
$GPGSV,3,2,12,15,14,032,43,16,14,204,,18,55,073,46,19,48,295,10*7C
$GPGSV,3,3,12,21,32,087,48,22,67,156,,24,01,085,42,26,18,130,34*7C
$GPGLL,5355.16774,N,02730.01722,E,085106.00,A,A*66
$GPRMC,085107.00,A,5355.16776,N,02730.01731,E,0.085,,050210,,,A*75
$GPVTG,,T,,M,0.085,N,0.157,K,A*2D
$GPGGA,085107.00,5355.16776,N,02730.01731,E,1,04,4.99,243.6,M,25.0,M,,*56
$GPGSA,A,3,18,21,26,15,,,,,,,,,5.48,4.99,2.27*02
$GPGSV,3,1,12,03,67,250,24,06,72,219,17,08,07,331,27,14,06,151,*79
$GPGSV,3,2,12,15,14,032,43,16,14,204,,18,55,073,46,19,48,295,10*7C
$GPGSV,3,3,12,21,32,087,48,22,67,156,,24,01,085,42,26,18,130,35*7D
$GPGLL,5355.16776,N,02730.01731,E,085107.00,A,A*67
$GPRMC,085108.00,A,5355.16781,N,02730.01786,E,0.188,,050210,,,A*72
$GPVTG,,T,,M,0.188,N,0.349,K,A*2C
$GPGGA,085108.00,5355.16781,N,02730.01786,E,1,04,4.99,243.4,M,25.0,M,,*5F
$GPGSA,A,3,18,21,26,15,,,,,,,,,5.48,4.99,2.27*02
$GPGSV,3,1,12,03,67,250,23,06,72,219,15,08,07,331,26,14,06,151,*7D
$GPGSV,3,2,12,15,14,032,43,16,14,204,,18,55,073,46,19,48,295,13*7F
$GPGSV,3,3,12,21,32,087,47,22,67,156,,24,01,085,42,26,18,130,36*71
$GPGLL,5355.16781,N,02730.01786,E,085108.00,A,A*6C
$GPRMC,085109.00,A,5355.16801,N,02730.01883,E,0.221,306.41,050210,,,A*60
$GPVTG,306.41,T,,M,0.221,N,0.409,K,A*31
$GPGGA,085109.00,5355.16801,N,02730.01883,E,1,04,4.99,243.5,M,25.0,M,,*52
$GPGSA,A,3,18,21,26,15,,,,,,,,,5.48,4.99,2.27*02
$GPGSV,3,1,12,03,67,250,,06,72,219,11,08,07,331,25,14,06,151,*7B
$GPGSV,3,2,12,15,14,032,41,16,14,204,,18,55,073,45,19,48,295,16*7B
$GPGSV,3,3,12,21,32,087,45,22,67,156,,24,01,085,41,26,18,130,36*70
$GPGLL,5355.16801,N,02730.01883,E,085109.00,A,A*60
$GPRMC,085110.00,A,5355.16838,N,02730.02013,E,0.088,,050210,,,A*7F
$GPVTG,,T,,M,0.088,N,0.162,K,A*26
$GPGGA,085110.00,5355.16838,N,02730.02013,E,1,04,4.99,243.9,M,25.0,M,,*5E
$GPGSA,A,3,18,21,26,15,,,,,,,,,5.48,4.99,2.27*02
$GPGSV,3,1,12,03,67,250,,06,72,219,10,08,07,331,24,14,06,151,*7B
$GPGSV,3,2,12,15,14,032,40,16,14,204,26,18,55,073,45,19,48,295,18*70
$GPGSV,3,3,12,21,32,087,45,22,67,156,,24,01,085,40,26,18,130,37*70
$GPGLL,5355.16838,N,02730.02013,E,085110.00,A,A*60
$GPRMC,085111.00,A,5355.16896,N,02730.02189,E,0.078,,050210,,,A*77
$GPVTG,,T,,M,0.078,N,0.145,K,A*2C
$GPGGA,085111.00,5355.16896,N,02730.02189,E,1,04,4.99,244.7,M,25.0,M,,*50
$GPGSA,A,3,18,21,26,15,,,,,,,,,5.48,4.99,2.27*02
$GPGSV,3,1,12,03,67,250,,06,72,219,,08,07,331,23,14,06,151,*7D
$GPGSV,3,2,12,15,14,032,40,16,14,204,,18,55,073,46,19,48,295,20*7C
$GPGSV,3,3,12,21,32,087,46,22,67,156,,24,01,085,41,26,18,130,39*7C
$GPGLL,5355.16896,N,02730.02189,E,085111.00,A,A*67
$GPRMC,085112.00,A,5355.16942,N,02730.02332,E,0.033,,050210,,,A*71
$GPVTG,,T,,M,0.033,N,0.061,K,A*24
$GPGGA,085112.00,5355.16942,N,02730.02332,E,1,04,4.99,245.4,M,25.0,M,,*5B
$GPGSA,A,3,18,21,26,15,,,,,,,,,5.48,4.99,2.27*02
$GPGSV,3,1,12,03,67,250,27,06,72,219,,08,07,331,23,14,06,151,*78
$GPGSV,3,2,12,15,14,032,41,16,14,204,,18,55,073,46,19,48,295,22*7F
$GPGSV,3,3,12,21,32,087,47,22,67,156,,24,01,085,41,26,18,130,39*7D
$GPGLL,5355.16942,N,02730.02332,E,085112.00,A,A*6E
$GPRMC,085113.00,A,5355.16988,N,02730.02475,E,0.143,,050210,,,A*74
$GPVTG,,T,,M,0.143,N,0.264,K,A*25
$GPGGA,085113.00,5355.16988,N,02730.02475,E,1,04,4.98,246.1,M,25.0,M,,*5F
$GPGSA,A,3,18,21,26,15,,,,,,,,,5.48,4.98,2.27*03
$GPGSV,3,1,12,03,67,250,27,06,72,219,,08,07,331,24,14,06,151,*7F
$GPGSV,3,2,12,15,14,032,41,16,14,204,,18,55,073,45,19,48,295,24*7A
$GPGSV,3,3,12,21,32,087,47,22,67,156,,24,01,085,41,26,18,130,39*7D
$GPGLL,5355.16988,N,02730.02475,E,085113.00,A,A*6D
$GPRMC,085114.00,A,5355.17026,N,02730.02579,E,0.058,,050210,,,A*79
$GPVTG,,T,,M,0.058,N,0.107,K,A*28
$GPGGA,085114.00,5355.17026,N,02730.02579,E,1,04,4.98,246.8,M,25.0,M,,*50
$GPGSA,A,3,18,21,26,15,,,,,,,,,5.48,4.98,2.27*03
$GPGSV,3,1,12,03,67,250,27,06,72,219,,08,07,331,25,14,06,151,*7E
$GPGSV,3,2,12,15,14,032,42,16,14,204,,18,55,073,45,19,48,295,24*79
$GPGSV,3,3,12,21,32,087,46,22,67,156,,24,01,085,41,26,18,130,39*7C
$GPGLL,5355.17026,N,02730.02579,E,085114.00,A,A*6B
$GPRMC,085115.00,A,5355.17060,N,02730.02660,E,0.017,,050210,,,A*7A
$GPVTG,,T,,M,0.017,N,0.032,K,A*24
$GPGGA,085115.00,5355.17060,N,02730.02660,E,1,04,4.98,247.8,M,25.0,M,,*59
$GPGSA,A,3,18,21,26,15,,,,,,,,,5.48,4.98,2.27*03
$GPGSV,3,1,12,03,67,250,27,06,72,219,24,08,07,331,26,14,06,151,*7B
$GPGSV,3,2,12,15,14,032,42,16,14,204,,18,55,073,45,19,48,295,24*79
$GPGSV,3,3,12,21,32,087,46,22,67,156,,24,01,085,41,26,18,130,39*7C
$GPGLL,5355.17060,N,02730.02660,E,085115.00,A,A*63
$GPRMC,085116.00,A,5355.17084,N,02730.02730,E,0.040,,050210,,,A*75
$GPVTG,,T,,M,0.040,N,0.075,K,A*25
$GPGGA,085116.00,5355.17084,N,02730.02730,E,1,04,4.98,248.5,M,25.0,M,,*56
$GPGSA,A,3,18,21,26,15,,,,,,,,,5.48,4.98,2.27*03
$GPGSV,3,1,12,03,67,250,25,06,72,219,23,08,07,331,25,14,06,151,*7D
$GPGSV,3,2,12,15,14,032,42,16,14,204,,18,55,073,45,19,48,295,23*7E
$GPGSV,3,3,12,21,32,087,46,22,67,156,,24,01,085,41,26,18,130,38*7D
$GPGLL,5355.17084,N,02730.02730,E,085116.00,A,A*6E
$GPRMC,085117.00,A,5355.17100,N,02730.02761,E,0.057,,050210,,,A*7B
$GPVTG,,T,,M,0.057,N,0.106,K,A*26
$GPGGA,085117.00,5355.17100,N,02730.02761,E,1,04,4.98,249.2,M,25.0,M,,*58
$GPGSA,A,3,18,21,26,15,,,,,,,,,5.48,4.98,2.27*03
$GPGSV,3,1,12,03,67,250,24,06,72,219,21,08,07,331,25,14,06,151,*7E
$GPGSV,3,2,12,15,14,032,43,16,14,204,,18,55,073,45,19,48,295,22*7E
$GPGSV,3,3,12,21,32,087,46,22,67,156,,24,01,085,41,26,18,130,38*7D
$GPGLL,5355.17100,N,02730.02761,E,085117.00,A,A*66
$GPRMC,085118.00,A,5355.17107,N,02730.02791,E,0.087,,050210,,,A*71
$GPVTG,,T,,M,0.087,N,0.160,K,A*2B
$GPGGA,085118.00,5355.17107,N,02730.02791,E,1,04,4.98,249.6,M,25.0,M,,*5B
$GPGSA,A,3,18,21,26,15,,,,,,,,,5.48,4.98,2.27*03
$GPGSV,3,1,12,03,67,250,23,06,72,219,18,08,07,331,25,14,06,151,*73
$GPGSV,3,2,12,15,14,032,42,16,14,204,,18,55,073,43,19,48,295,20*7B
$GPGSV,3,3,12,21,32,087,44,22,67,156,,24,01,085,39,26,18,130,35*7D
$GPGLL,5355.17107,N,02730.02791,E,085118.00,A,A*61
$GPRMC,085119.00,A,5355.17112,N,02730.02835,E,0.205,302.21,050210,,,A*61
$GPVTG,302.21,T,,M,0.205,N,0.380,K,A*33
$GPGGA,085119.00,5355.17112,N,02730.02835,E,1,04,4.98,249.8,M,25.0,M,,*51
$GPGSA,A,3,18,21,26,15,,,,,,,,,5.48,4.98,2.27*03
$GPGSV,3,1,12,03,67,250,22,06,72,219,14,08,07,331,25,14,06,151,*7E
$GPGSV,3,2,12,15,14,032,43,16,14,204,,18,55,073,44,19,48,295,20*7D
$GPGSV,3,3,12,21,32,087,45,22,67,156,,24,01,085,39,26,18,130,35*7C
$GPGLL,5355.17112,N,02730.02835,E,085119.00,A,A*65
$GPRMC,085120.00,A,5355.17115,N,02730.02871,E,0.142,,050210,,,A*70
$GPVTG,,T,,M,0.142,N,0.263,K,A*23
$GPGGA,085120.00,5355.17115,N,02730.02871,E,1,04,4.98,250.0,M,25.0,M,,*5C
$GPGSA,A,3,18,21,26,15,,,,,,,,,5.48,4.98,2.27*03
$GPGSV,3,1,12,03,67,250,21,06,72,219,16,08,07,331,24,14,06,151,*7E
$GPGSV,3,2,12,15,14,032,44,16,14,204,,18,55,073,44,19,48,295,20*7A
$GPGSV,3,3,12,21,32,087,46,22,67,156,,24,01,085,39,26,18,130,34*7E
$GPGLL,5355.17115,N,02730.02871,E,085120.00,A,A*68
$GPRMC,085121.00,A,5355.17114,N,02730.02897,E,0.131,,050210,,,A*7C
$GPVTG,,T,,M,0.131,N,0.243,K,A*25
$GPGGA,085121.00,5355.17114,N,02730.02897,E,1,04,4.98,250.2,M,25.0,M,,*56
$GPGSA,A,3,18,21,26,15,,,,,,,,,5.48,4.98,2.27*03
$GPGSV,3,1,12,03,67,250,23,06,72,219,20,08,07,331,25,14,06,151,*78
$GPGSV,3,2,12,15,14,032,45,16,14,204,,18,55,073,45,19,48,295,22*78
$GPGSV,3,3,12,21,32,087,47,22,67,156,,24,01,085,40,26,18,130,34*71
$GPGLL,5355.17114,N,02730.02897,E,085121.00,A,A*60
$GPRMC,085122.00,A,5355.17111,N,02730.02927,E,0.018,,050210,,,A*7A
$GPVTG,,T,,M,0.018,N,0.034,K,A*2D
$GPGGA,085122.00,5355.17111,N,02730.02927,E,1,04,4.98,250.6,M,25.0,M,,*5E
$GPGSA,A,3,18,21,26,15,,,,,,,,,5.47,4.98,2.27*0C
$GPGSV,3,1,12,03,67,250,24,06,72,219,21,08,07,331,24,14,06,151,*7F
$GPGSV,3,2,12,15,14,032,45,16,14,204,,18,55,073,45,19,48,295,23*79
$GPGSV,3,3,12,21,32,087,47,22,67,156,25,24,01,085,39,26,18,130,33*7F
$GPGLL,5355.17111,N,02730.02927,E,085122.00,A,A*6C
$GPRMC,085123.00,A,5355.17101,N,02730.02965,E,0.039,,050210,,,A*7F
$GPVTG,,T,,M,0.039,N,0.073,K,A*2D
$GPGGA,085123.00,5355.17101,N,02730.02965,E,1,04,4.98,250.9,M,25.0,M,,*57
$GPGSA,A,3,18,21,26,15,,,,,,,,,5.47,4.98,2.27*0C
$GPGSV,3,1,12,03,67,250,25,06,72,219,21,08,07,331,24,14,06,151,*7E
$GPGSV,3,2,12,15,14,032,45,16,14,204,,18,55,073,46,19,48,295,24*7D
$GPGSV,3,3,12,21,32,087,47,22,67,156,26,24,01,085,40,26,18,130,32*73
$GPGLL,5355.17101,N,02730.02965,E,085123.00,A,A*6A
$GPRMC,085124.00,A,5355.17091,N,02730.03002,E,0.131,,050210,,,A*70
$GPVTG,,T,,M,0.131,N,0.242,K,A*24
$GPGGA,085124.00,5355.17091,N,02730.03002,E,1,04,4.98,251.1,M,25.0,M,,*58
$GPGSA,A,3,18,21,26,15,,,,,,,,,5.47,4.98,2.27*0C
$GPGSV,3,1,12,03,67,250,26,06,72,219,20,08,07,331,25,14,06,151,*7D
$GPGSV,3,2,12,15,14,032,45,16,14,204,,18,55,073,46,19,48,295,24*7D
$GPGSV,3,3,12,21,32,087,47,22,67,156,28,24,01,085,40,26,18,130,31*7E
$GPGLL,5355.17091,N,02730.03002,E,085124.00,A,A*6C
$GPRMC,085125.00,A,5355.17079,N,02730.03028,E,0.136,,050210,,,A*78
$GPVTG,,T,,M,0.136,N,0.252,K,A*22
$GPGGA,085125.00,5355.17079,N,02730.03028,E,1,04,4.98,251.3,M,25.0,M,,*55
$GPGSA,A,3,18,21,26,15,,,,,,,,,5.47,4.98,2.27*0C
$GPGSV,3,1,12,03,67,250,26,06,72,219,19,08,07,331,26,14,06,151,*74
$GPGSV,3,2,12,15,14,032,45,16,14,204,,18,55,073,46,19,48,295,25*7C
$GPGSV,3,3,12,21,32,087,47,22,67,156,29,24,01,085,41,26,18,130,30*7F
$GPGLL,5355.17079,N,02730.03028,E,085125.00,A,A*63
$GPRMC,085126.00,A,5355.17068,N,02730.03037,E,0.132,,050210,,,A*71
$GPVTG,,T,,M,0.132,N,0.245,K,A*20
$GPGGA,085126.00,5355.17068,N,02730.03037,E,1,04,4.98,251.3,M,25.0,M,,*58
$GPGSA,A,3,18,21,26,15,,,,,,,,,5.47,4.98,2.28*03
$GPGSV,3,1,12,03,67,250,27,06,72,219,18,08,07,331,26,14,06,151,*74
$GPGSV,3,2,12,15,14,032,45,16,14,204,,18,55,073,46,19,48,295,25*7C
$GPGSV,3,3,12,21,32,087,47,22,67,156,29,24,01,085,41,26,18,130,29*77
$GPGLL,5355.17068,N,02730.03037,E,085126.00,A,A*6E
$GPRMC,085127.00,A,5355.17058,N,02730.03017,E,0.288,297.97,050210,,,A*6F
$GPVTG,297.97,T,,M,0.288,N,0.533,K,A*38
$GPGGA,085127.00,5355.17058,N,02730.03017,E,1,04,4.98,251.1,M,25.0,M,,*5A
$GPGSA,A,3,18,21,26,15,,,,,,,,,5.47,4.98,2.28*03
$GPGSV,3,1,12,03,67,250,26,06,72,219,17,08,07,331,27,14,06,151,*7B
$GPGSV,3,2,12,15,14,032,44,16,14,204,,18,55,073,46,19,48,295,25*7D
$GPGSV,3,3,12,21,32,087,48,22,67,156,29,24,01,085,41,26,18,130,27*76
$GPGLL,5355.17058,N,02730.03017,E,085127.00,A,A*6E
$GPRMC,085128.00,A,5355.17046,N,02730.02966,E,0.498,294.00,050210,,,A*6B
$GPVTG,294.00,T,,M,0.498,N,0.922,K,A*3E
$GPGGA,085128.00,5355.17046,N,02730.02966,E,1,05,1.79,250.8,M,25.0,M,,*57
$GPGSA,A,3,18,21,08,26,15,,,,,,,,2.86,1.79,2.22*01
$GPGSV,3,1,12,03,67,250,25,06,72,219,15,08,07,330,27,14,06,151,*7B
$GPGSV,3,2,12,15,14,032,44,16,14,204,,18,55,073,45,19,48,295,25*7E
$GPGSV,3,3,12,21,32,087,48,22,67,156,29,24,01,085,41,26,18,130,26*77
$GPGLL,5355.17046,N,02730.02966,E,085128.00,A,A*60
$GPRMC,085129.00,A,5355.17034,N,02730.02913,E,0.588,290.28,050210,,,A*63
$GPVTG,290.28,T,,M,0.588,N,1.090,K,A*31
$GPGGA,085129.00,5355.17034,N,02730.02913,E,1,05,1.79,250.6,M,25.0,M,,*5F
$GPGSA,A,3,18,21,08,26,15,,,,,,,,2.86,1.79,2.22*01
$GPGSV,3,1,12,03,67,250,24,06,72,219,12,08,07,330,28,14,06,151,*72
$GPGSV,3,2,12,15,14,032,44,16,14,204,,18,55,073,46,19,48,295,25*7D
$GPGSV,3,3,12,21,32,087,49,22,67,156,28,24,01,085,41,26,18,130,28*79
$GPGLL,5355.17034,N,02730.02913,E,085129.00,A,A*66
$GPRMC,085130.00,A,5355.17020,N,02730.02862,E,0.658,286.77,050210,,,A*6A
$GPVTG,286.77,T,,M,0.658,N,1.219,K,A*31
$GPGGA,085130.00,5355.17020,N,02730.02862,E,1,05,1.79,250.3,M,25.0,M,,*50
$GPGSA,A,3,18,21,08,26,15,,,,,,,,2.86,1.79,2.22*01
$GPGSV,3,1,12,03,67,250,24,06,72,219,13,08,07,330,28,14,06,151,*73
$GPGSV,3,2,12,15,14,032,45,16,14,204,,18,55,073,45,19,48,295,25*7F
$GPGSV,3,3,12,21,32,087,49,22,67,156,28,24,01,085,40,26,18,130,29*79
$GPGLL,5355.17020,N,02730.02862,E,085130.00,A,A*6C
$GPRMC,085131.00,A,5355.17009,N,02730.02821,E,0.658,283.54,050210,,,A*63
$GPVTG,283.54,T,,M,0.658,N,1.219,K,A*35
$GPGGA,085131.00,5355.17009,N,02730.02821,E,1,05,1.79,250.1,M,25.0,M,,*5F
$GPGSA,A,3,18,21,08,26,15,,,,,,,,2.86,1.79,2.23*00
$GPGSV,3,1,12,03,67,250,26,06,72,219,17,08,07,330,27,14,06,151,*7A
$GPGSV,3,2,12,15,14,032,45,16,14,204,,18,55,073,46,19,48,295,25*7C
$GPGSV,3,3,12,21,32,087,49,22,67,156,27,24,01,085,41,26,18,130,30*7F
$GPGLL,5355.17009,N,02730.02821,E,085131.00,A,A*61
$GPRMC,085132.00,A,5355.16991,N,02730.02767,E,0.997,280.53,050210,,,A*6C
$GPVTG,280.53,T,,M,0.997,N,1.848,K,A*33
$GPGGA,085132.00,5355.16991,N,02730.02767,E,1,05,1.79,249.8,M,25.0,M,,*59
$GPGSA,A,3,18,21,08,26,15,,,,,,,,2.86,1.79,2.23*00
$GPGSV,3,1,12,03,67,250,27,06,72,219,20,08,07,330,26,14,06,151,*7E
$GPGSV,3,2,12,15,14,032,45,16,14,204,,18,55,073,46,19,48,295,24*7D
$GPGSV,3,3,12,21,32,087,49,22,67,156,27,24,01,085,41,26,18,130,35*7A
$GPGLL,5355.16991,N,02730.02767,E,085132.00,A,A*66
$GPRMC,085133.00,A,5355.16972,N,02730.02710,E,1.137,277.73,050210,,,A*69
$GPVTG,277.73,T,,M,1.137,N,2.107,K,A*3B
$GPGGA,085133.00,5355.16972,N,02730.02710,E,1,05,1.79,249.6,M,25.0,M,,*5B
$GPGSA,A,3,18,21,08,26,15,,,,,,,,2.86,1.79,2.23*00
$GPGSV,3,1,12,03,67,250,27,06,72,219,19,08,07,330,25,14,06,151,*77
$GPGSV,3,2,12,15,14,032,44,16,14,204,,18,55,073,45,19,48,295,23*78
$GPGSV,3,3,12,21,32,087,48,22,67,156,26,24,01,085,39,26,18,130,34*74
$GPGLL,5355.16972,N,02730.02710,E,085133.00,A,A*6A
$GPRMC,085134.00,A,5355.16953,N,02730.02655,E,1.016,275.06,050210,,,A*6F
$GPVTG,275.06,T,,M,1.016,N,1.882,K,A*3E
$GPGGA,085134.00,5355.16953,N,02730.02655,E,1,05,1.79,249.3,M,25.0,M,,*5A
$GPGSA,A,3,18,21,08,26,15,,,,,,,,2.86,1.79,2.23*00
$GPGSV,3,1,12,03,67,250,26,06,72,219,16,08,07,330,23,14,06,151,*7F
$GPGSV,3,2,12,15,14,032,45,16,14,204,,18,55,073,46,19,48,295,21*78
$GPGSV,3,3,12,21,32,087,49,22,67,156,26,24,01,085,41,26,18,130,35*7B
$GPGLL,5355.16953,N,02730.02655,E,085134.00,A,A*6E
$GPRMC,085135.00,A,5355.16935,N,02730.02610,E,0.860,272.53,050210,,,A*60
$GPVTG,272.53,T,,M,0.860,N,1.594,K,A*3B
$GPGGA,085135.00,5355.16935,N,02730.02610,E,1,05,1.79,249.1,M,25.0,M,,*58
$GPGSA,A,3,18,21,08,26,15,,,,,,,,2.86,1.79,2.23*00
$GPGSV,3,1,12,03,67,250,23,06,72,219,15,08,07,330,22,14,06,151,*78
$GPGSV,3,2,12,15,14,032,43,16,14,204,,18,55,073,45,19,48,295,19*76
$GPGSV,3,3,12,21,32,087,48,22,67,156,26,24,01,085,41,26,18,130,35*7A
$GPGLL,5355.16935,N,02730.02610,E,085135.00,A,A*6E
$GPRMC,085136.00,A,5355.16958,N,02730.02675,E,0.386,270.33,050210,,,A*6C
$GPVTG,270.33,T,,M,0.386,N,0.715,K,A*36
$GPGGA,085136.00,5355.16958,N,02730.02675,E,1,05,1.79,249.7,M,25.0,M,,*55
$GPGSA,A,3,18,21,08,26,15,,,,,,,,2.86,1.79,2.23*00
$GPGSV,3,1,12,03,67,250,,06,72,219,17,08,07,330,21,14,06,151,*78
$GPGSV,3,2,12,15,14,032,45,16,14,204,,18,55,073,46,19,48,295,18*72
$GPGSV,3,3,12,21,32,087,50,22,67,156,27,24,01,085,42,26,18,130,36*72
$GPGLL,5355.16958,N,02730.02675,E,085136.00,A,A*65
$GPRMC,085137.00,A,5355.16951,N,02730.02661,E,0.151,,050210,,,A*72
$GPVTG,,T,,M,0.151,N,0.280,K,A*2C
$GPGGA,085137.00,5355.16951,N,02730.02661,E,1,05,1.79,249.6,M,25.0,M,,*59
$GPGSA,A,3,18,21,08,26,15,,,,,,,,2.86,1.79,2.23*00
$GPGSV,3,1,12,03,67,250,,06,72,219,20,08,07,330,20,14,06,151,*7D
$GPGSV,3,2,12,15,14,032,45,16,14,204,,18,55,073,46,19,48,295,19*73
$GPGSV,3,3,12,21,32,087,50,22,67,156,27,24,01,085,42,26,18,130,36*72
$GPGLL,5355.16951,N,02730.02661,E,085137.00,A,A*68
$GPRMC,085138.00,A,5355.16944,N,02730.02634,E,0.523,279.74,050210,,,A*69
$GPVTG,279.74,T,,M,0.523,N,0.970,K,A*38
$GPGGA,085138.00,5355.16944,N,02730.02634,E,1,05,1.79,249.5,M,25.0,M,,*51
$GPGSA,A,3,18,21,08,26,15,,,,,,,,2.86,1.79,2.23*00
$GPGSV,3,1,12,03,67,250,26,06,72,219,20,08,07,330,18,14,06,151,*72
$GPGSV,3,2,12,15,14,032,45,16,14,204,,18,55,073,46,19,48,295,19*73
$GPGSV,3,3,12,21,32,087,49,22,67,156,27,24,01,085,42,26,18,130,37*7B
$GPGLL,5355.16944,N,02730.02634,E,085138.00,A,A*63
$GPRMC,085139.00,A,5355.16947,N,02730.02631,E,0.955,288.42,050210,,,A*68
$GPVTG,288.42,T,,M,0.955,N,1.769,K,A*39
$GPGGA,085139.00,5355.16947,N,02730.02631,E,1,05,1.79,249.7,M,25.0,M,,*54
$GPGSA,A,3,18,21,08,26,15,,,,,,,,2.86,1.79,2.23*00
$GPGSV,3,1,12,03,67,250,26,06,72,219,17,08,07,330,18,14,06,151,*76
$GPGSV,3,2,12,15,14,032,45,16,14,204,,18,55,073,46,19,48,295,19*73
$GPGSV,3,3,12,21,32,087,50,22,67,156,26,24,01,085,42,26,18,130,37*72
$GPGLL,5355.16947,N,02730.02631,E,085139.00,A,A*64
$GPRMC,085140.00,A,5355.16953,N,02730.02634,E,1.209,296.51,050210,,,A*68
$GPVTG,296.51,T,,M,1.209,N,2.240,K,A*3A
$GPGGA,085140.00,5355.16953,N,02730.02634,E,1,05,1.79,249.8,M,25.0,M,,*55
$GPGSA,A,3,18,21,08,26,15,,,,,,,,2.86,1.79,2.23*00
$GPGSV,3,1,12,03,67,250,27,06,72,219,12,08,07,330,18,14,06,151,*72
$GPGSV,3,2,12,15,14,032,45,16,14,204,,18,55,073,46,19,48,295,19*73
$GPGSV,3,3,12,21,32,087,49,22,67,156,25,24,01,085,42,26,18,130,37*79
$GPGLL,5355.16953,N,02730.02634,E,085140.00,A,A*6A
$GPRMC,085141.00,A,5355.16952,N,02730.02616,E,1.203,304.08,050210,,,A*64
$GPVTG,304.08,T,,M,1.203,N,2.230,K,A*31
$GPGGA,085141.00,5355.16952,N,02730.02616,E,1,05,1.79,249.9,M,25.0,M,,*54
$GPGSA,A,3,18,21,08,26,15,,,,,,,,2.86,1.79,2.23*00
$GPGSV,3,1,12,03,67,250,28,06,72,219,12,08,07,330,18,14,06,151,*7D
$GPGSV,3,2,12,15,14,032,45,16,14,204,,18,55,073,45,19,48,295,19*70
$GPGSV,3,3,12,21,32,087,49,22,67,156,22,24,01,085,43,26,18,130,38*70
$GPGLL,5355.16952,N,02730.02616,E,085141.00,A,A*6A
$GPRMC,085142.00,A,5355.16901,N,02730.02472,E,0.382,311.88,050210,,,A*64
$GPVTG,311.88,T,,M,0.382,N,0.707,K,A*37
$GPGGA,085142.00,5355.16901,N,02730.02472,E,1,05,1.79,249.0,M,25.0,M,,*58
$GPGSA,A,3,18,21,08,26,15,,,,,,,,2.86,1.79,2.23*00
$GPGSV,3,1,12,03,67,250,26,06,72,219,17,08,07,330,19,14,06,151,*77
$GPGSV,3,2,12,15,14,032,45,16,14,204,,18,55,073,45,19,48,295,19*70
$GPGSV,3,3,12,21,32,087,49,22,67,156,,24,01,085,42,26,18,130,38*71
$GPGLL,5355.16901,N,02730.02472,E,085142.00,A,A*6F
$GPRMC,085143.00,A,5355.16896,N,02730.02443,E,0.211,319.01,050210,,,A*6A
$GPVTG,319.01,T,,M,0.211,N,0.392,K,A*3D
$GPGGA,085143.00,5355.16896,N,02730.02443,E,1,05,1.79,249.1,M,25.0,M,,*55
$GPGSA,A,3,18,21,08,26,15,,,,,,,,2.86,1.79,2.23*00
$GPGSV,3,1,12,03,67,250,25,06,72,219,21,08,07,330,20,14,06,151,*7B
$GPGSV,3,2,12,15,14,032,45,16,14,204,,18,55,073,45,19,48,295,19*70
$GPGSV,3,3,12,21,32,087,49,22,67,156,,24,01,085,42,26,18,130,37*7E
$GPGLL,5355.16896,N,02730.02443,E,085143.00,A,A*63
$GPRMC,085144.00,A,5355.16895,N,02730.02431,E,0.186,,050210,,,A*72
$GPVTG,,T,,M,0.186,N,0.345,K,A*2E
$GPGGA,085144.00,5355.16895,N,02730.02431,E,1,05,1.79,249.3,M,25.0,M,,*56
$GPGSA,A,3,18,21,08,26,15,,,,,,,,2.86,1.79,2.23*00
$GPGSV,3,1,12,03,67,250,,06,72,219,23,08,07,330,21,14,06,151,*7F
$GPGSV,3,2,12,15,14,032,45,16,14,204,,18,55,073,45,19,48,295,21*7B
$GPGSV,3,3,12,21,32,087,48,22,67,156,27,24,01,085,42,26,18,130,37*7A
$GPGLL,5355.16895,N,02730.02431,E,085144.00,A,A*62
$GPRMC,085145.00,A,5355.16894,N,02730.02410,E,0.409,314.01,050210,,,A*6A
$GPVTG,314.01,T,,M,0.409,N,0.758,K,A*3D
$GPGGA,085145.00,5355.16894,N,02730.02410,E,1,05,1.79,249.3,M,25.0,M,,*55
$GPGSA,A,3,18,21,08,26,15,,,,,,,,2.86,1.79,2.23*00
$GPGSV,3,1,12,03,67,250,,06,72,219,23,08,07,330,21,14,07,151,*7E
$GPGSV,3,2,12,15,14,032,43,16,14,204,,18,55,073,44,19,48,295,21*7C
$GPGSV,3,3,12,21,32,087,47,22,67,156,27,24,01,085,40,26,18,130,36*76
$GPGLL,5355.16894,N,02730.02410,E,085145.00,A,A*61
$GPRMC,085146.00,A,5355.16889,N,02730.02363,E,0.246,309.09,050210,,,A*6F
$GPVTG,309.09,T,,M,0.246,N,0.455,K,A*3A
$GPGGA,085146.00,5355.16889,N,02730.02363,E,1,05,1.79,249.3,M,25.0,M,,*59
$GPGSA,A,3,18,21,08,26,15,,,,,,,,2.86,1.79,2.23*00
$GPGSV,3,1,12,03,67,250,,06,72,219,23,08,07,330,22,14,07,151,*7D
$GPGSV,3,2,12,15,14,032,44,16,14,204,,18,55,073,44,19,48,295,23*79
$GPGSV,3,3,12,21,32,087,46,22,67,156,26,24,01,085,40,26,18,130,35*75
$GPGLL,5355.16889,N,02730.02363,E,085146.00,A,A*6D
$GPRMC,085147.00,A,5355.16883,N,02730.02334,E,0.023,,050210,,,A*7A
$GPVTG,,T,,M,0.023,N,0.043,K,A*25
$GPGGA,085147.00,5355.16883,N,02730.02334,E,1,05,1.79,249.3,M,25.0,M,,*50
$GPGSA,A,3,18,21,08,26,15,,,,,,,,2.86,1.79,2.23*00
$GPGSV,3,1,12,03,67,250,,06,72,219,25,08,07,330,24,14,07,151,*7D
$GPGSV,3,2,12,15,14,032,46,16,14,204,,18,55,073,46,19,48,295,25*7F
$GPGSV,3,3,12,21,32,087,48,22,67,156,26,24,01,085,41,26,18,130,35*7A
$GPGLL,5355.16883,N,02730.02334,E,085147.00,A,A*64
$GPRMC,085148.00,A,5355.16875,N,02730.02320,E,0.058,,050210,,,A*75
$GPVTG,,T,,M,0.058,N,0.107,K,A*28
$GPGGA,085148.00,5355.16875,N,02730.02320,E,1,05,1.79,249.4,M,25.0,M,,*54
$GPGSA,A,3,18,21,08,26,15,,,,,,,,2.86,1.79,2.23*00
$GPGSV,3,1,12,03,67,250,,06,72,219,25,08,07,330,25,14,07,151,*7C
$GPGSV,3,2,12,15,14,032,46,16,14,204,,18,55,073,46,19,48,295,26*7C
$GPGSV,3,3,12,21,32,087,47,22,67,156,26,24,01,085,41,26,18,130,35*75
$GPGLL,5355.16875,N,02730.02320,E,085148.00,A,A*67
$GPRMC,085149.00,A,5355.16866,N,02730.02314,E,0.346,304.62,050210,,,A*60
$GPVTG,304.62,T,,M,0.346,N,0.641,K,A*3C
$GPGGA,085149.00,5355.16866,N,02730.02314,E,1,05,1.79,249.4,M,25.0,M,,*50
$GPGSA,A,3,18,21,08,26,15,,,,,,,,2.86,1.79,2.23*00
$GPGSV,3,1,12,03,67,250,,06,72,219,25,08,07,330,25,14,07,151,*7C
$GPGSV,3,2,12,15,14,032,45,16,14,204,,18,55,073,45,19,48,295,26*7C
$GPGSV,3,3,12,21,32,087,47,22,67,156,26,24,01,085,41,26,18,130,34*74
$GPGLL,5355.16866,N,02730.02314,E,085149.00,A,A*63
$GPRMC,085150.00,A,5355.16856,N,02730.02311,E,0.506,300.38,050210,,,A*67
$GPVTG,300.38,T,,M,0.506,N,0.937,K,A*3B
$GPGGA,085150.00,5355.16856,N,02730.02311,E,1,05,1.79,249.5,M,25.0,M,,*5F
$GPGSA,A,3,18,21,08,26,15,,,,,,,,2.86,1.79,2.23*00
$GPGSV,3,1,12,03,67,250,28,06,72,219,25,08,07,330,25,14,07,151,*76
$GPGSV,3,2,12,15,14,032,46,16,14,204,,18,55,073,45,19,48,295,27*7E
$GPGSV,3,3,12,21,32,087,47,22,67,156,27,24,01,085,41,26,18,130,33*72
$GPGLL,5355.16856,N,02730.02311,E,085150.00,A,A*6D
$GPRMC,085151.00,A,5355.16845,N,02730.02318,E,0.564,296.45,050210,,,A*6D
$GPVTG,296.45,T,,M,0.564,N,1.045,K,A*36
$GPGGA,085151.00,5355.16845,N,02730.02318,E,1,05,1.79,249.6,M,25.0,M,,*56
$GPGSA,A,3,18,21,08,26,15,,,,,,,,2.86,1.79,2.23*00
$GPGSV,3,1,12,03,67,250,29,06,72,219,24,08,07,330,25,14,07,151,*76
$GPGSV,3,2,12,15,14,032,46,16,14,204,,18,55,073,45,19,48,295,26*7F
$GPGSV,3,3,12,21,32,087,46,22,67,156,28,24,01,085,40,26,18,130,32*7C
$GPGLL,5355.16845,N,02730.02318,E,085151.00,A,A*67
$GPRMC,085152.00,A,5355.16838,N,02730.02346,E,0.143,,050210,,,A*7C
$GPVTG,,T,,M,0.143,N,0.265,K,A*24
$GPGGA,085152.00,5355.16838,N,02730.02346,E,1,05,1.79,249.8,M,25.0,M,,*5A
$GPGSA,A,3,18,21,08,26,15,,,,,,,,2.86,1.79,2.23*00
$GPGSV,3,1,12,03,67,249,29,06,72,219,22,08,07,330,26,14,07,151,*7B
$GPGSV,3,2,12,15,14,032,46,16,14,204,,18,55,073,45,19,48,295,26*7F
$GPGSV,3,3,12,21,32,087,46,22,67,156,29,24,01,085,40,26,18,130,31*7E
$GPGLL,5355.16838,N,02730.02346,E,085152.00,A,A*65
$GPRMC,085153.00,A,5355.16831,N,02730.02377,E,0.025,,050210,,,A*77
$GPVTG,,T,,M,0.025,N,0.047,K,A*27
$GPGGA,085153.00,5355.16831,N,02730.02377,E,1,05,1.79,250.0,M,25.0,M,,*50
$GPGSA,A,3,18,21,08,26,15,,,,,,,,2.86,1.79,2.23*00
$GPGSV,3,1,12,03,67,249,29,06,72,219,23,08,07,330,26,14,07,151,*7A
$GPGSV,3,2,12,15,14,032,46,16,14,204,,18,55,073,45,19,48,295,26*7F
$GPGSV,3,3,12,21,32,087,46,22,67,156,31,24,01,085,40,26,18,130,32*74
$GPGLL,5355.16831,N,02730.02377,E,085153.00,A,A*6F
$GPRMC,085154.00,A,5355.16823,N,02730.02421,E,0.081,,050210,,,A*79
$GPVTG,,T,,M,0.081,N,0.150,K,A*2E
$GPGGA,085154.00,5355.16823,N,02730.02421,E,1,05,1.79,250.3,M,25.0,M,,*53
$GPGSA,A,3,18,21,08,26,15,,,,,,,,2.86,1.79,2.23*00
$GPGSV,3,1,12,03,67,249,29,06,72,219,23,08,07,330,26,14,07,151,*7A
$GPGSV,3,2,12,15,14,032,46,16,14,204,,18,55,073,45,19,48,295,25*7C
$GPGSV,3,3,12,21,32,087,46,22,67,156,32,24,01,085,40,26,18,130,32*77
$GPGLL,5355.16823,N,02730.02421,E,085154.00,A,A*6F
$GPRMC,085155.00,A,5355.16818,N,02730.02469,E,0.187,,050210,,,A*7B
$GPVTG,,T,,M,0.187,N,0.347,K,A*2D
$GPGGA,085155.00,5355.16818,N,02730.02469,E,1,05,1.79,250.5,M,25.0,M,,*50
$GPGSA,A,3,18,21,08,26,15,,,,,,,,2.86,1.79,2.23*00
$GPGSV,3,1,12,03,67,249,29,06,71,217,22,08,07,330,26,14,07,151,*76
$GPGSV,3,2,12,15,14,032,45,16,14,204,,18,55,073,45,19,48,295,25*7F
$GPGSV,3,3,12,21,32,087,46,22,67,156,31,24,01,085,40,26,18,130,31*77
$GPGLL,5355.16818,N,02730.02469,E,085155.00,A,A*6A
$GPRMC,085156.00,A,5355.16811,N,02730.02486,E,0.011,,050210,,,A*7E
$GPVTG,,T,,M,0.011,N,0.020,K,A*21
$GPGGA,085156.00,5355.16811,N,02730.02486,E,1,05,1.79,250.7,M,25.0,M,,*59
$GPGSA,A,3,18,21,08,26,15,,,,,,,,2.86,1.79,2.24*07
$GPGSV,3,1,12,03,67,249,28,06,71,217,20,08,07,330,26,14,07,151,*75
$GPGSV,3,2,12,15,14,032,45,16,14,204,,18,55,073,45,19,48,295,24*7E
$GPGSV,3,3,12,21,32,087,46,22,67,156,30,24,01,085,41,26,18,130,32*74
$GPGLL,5355.16811,N,02730.02486,E,085156.00,A,A*61
$GPRMC,085157.00,A,5355.16805,N,02730.02498,E,0.183,,050210,,,A*7F
$GPVTG,,T,,M,0.183,N,0.339,K,A*20
$GPGGA,085157.00,5355.16805,N,02730.02498,E,1,05,1.79,250.7,M,25.0,M,,*52
$GPGSA,A,3,18,21,08,26,15,,,,,,,,2.86,1.79,2.24*07
$GPGSV,3,1,12,03,67,249,28,06,71,217,18,08,07,330,26,14,07,151,*7E
$GPGSV,3,2,12,15,14,032,44,16,14,204,,18,55,073,45,19,48,295,23*78
$GPGSV,3,3,12,21,32,087,46,22,67,156,29,24,01,085,41,26,18,130,33*7D
$GPGLL,5355.16805,N,02730.02498,E,085157.00,A,A*6A
$GPRMC,085158.00,A,5355.16801,N,02730.02510,E,0.258,292.57,050210,,,A*65
$GPVTG,292.57,T,,M,0.258,N,0.478,K,A*32
$GPGGA,085158.00,5355.16801,N,02730.02510,E,1,05,1.79,250.8,M,25.0,M,,*57
$GPGSA,A,3,18,21,08,26,15,,,,,,,,2.86,1.79,2.24*07
$GPGSV,3,1,12,03,67,249,27,06,71,217,16,08,07,330,25,14,07,151,*7C
$GPGSV,3,2,12,15,14,032,44,16,14,204,,18,55,073,45,19,48,295,22*79
$GPGSV,3,3,12,21,32,087,46,22,67,156,28,24,01,085,41,26,18,130,33*7C
$GPGLL,5355.16801,N,02730.02510,E,085158.00,A,A*60
$GPRMC,085159.00,A,5355.16799,N,02730.02518,E,0.364,289.04,050210,,,A*60
$GPVTG,289.04,T,,M,0.364,N,0.675,K,A*3F
$GPGGA,085159.00,5355.16799,N,02730.02518,E,1,05,1.79,250.9,M,25.0,M,,*51
$GPGSA,A,3,18,21,08,26,15,,,,,,,,2.86,1.79,2.24*07
$GPGSV,3,1,12,03,67,249,27,06,71,217,13,08,07,330,24,14,07,151,*78
$GPGSV,3,2,12,15,14,032,44,16,14,204,,18,55,073,45,19,48,295,20*7B
$GPGSV,3,3,12,21,32,087,46,22,67,156,27,24,01,085,42,26,18,130,34*77
$GPGLL,5355.16799,N,02730.02518,E,085159.00,A,A*67
$GPRMC,085200.00,A,5355.16797,N,02730.02521,E,0.225,285.42,050210,,,A*61
$GPVTG,285.42,T,,M,0.225,N,0.417,K,A*33
$GPGGA,085200.00,5355.16797,N,02730.02521,E,1,05,1.79,251.0,M,25.0,M,,*52
$GPGSA,A,3,18,21,08,26,15,,,,,,,,2.86,1.79,2.24*07
$GPGSV,3,1,12,03,67,249,28,06,71,217,14,08,07,330,23,14,07,151,*77
$GPGSV,3,2,12,15,14,032,44,16,14,204,,18,55,073,45,19,48,295,19*71
$GPGSV,3,3,12,21,32,087,47,22,67,156,27,24,01,085,42,26,18,130,35*77
$GPGLL,5355.16797,N,02730.02521,E,085200.00,A,A*6C
$GPRMC,085201.00,A,5355.16798,N,02730.02524,E,0.256,282.12,050210,,,A*6C
$GPVTG,282.12,T,,M,0.256,N,0.474,K,A*30
$GPGGA,085201.00,5355.16798,N,02730.02524,E,1,05,1.79,251.1,M,25.0,M,,*58
$GPGSA,A,3,18,21,08,26,15,,,,,,,,2.87,1.79,2.24*06
$GPGSV,3,1,12,03,67,249,29,06,71,217,16,08,07,330,21,14,07,151,*76
$GPGSV,3,2,12,15,14,032,44,16,14,204,,18,55,073,45,19,48,295,16*7E
$GPGSV,3,3,12,21,32,087,47,22,67,156,27,24,01,085,42,26,18,130,35*77
$GPGLL,5355.16798,N,02730.02524,E,085201.00,A,A*67
$GPRMC,085202.00,A,5355.16797,N,02730.02521,E,0.079,,050210,,,A*7F
$GPVTG,,T,,M,0.079,N,0.146,K,A*2E
$GPGGA,085202.00,5355.16797,N,02730.02521,E,1,05,1.79,251.2,M,25.0,M,,*52
$GPGSA,A,3,18,21,08,26,15,,,,,,,,2.87,1.79,2.24*06
$GPGSV,3,1,12,03,67,249,31,06,71,217,18,08,07,330,20,14,07,151,*70
$GPGSV,3,2,12,15,14,032,44,16,14,204,,18,55,073,45,19,48,295,14*7C
$GPGSV,3,3,12,21,32,087,47,22,67,156,26,24,01,085,42,26,18,130,36*75
$GPGLL,5355.16797,N,02730.02521,E,085202.00,A,A*6E
$GPRMC,085203.00,A,5355.16793,N,02730.02503,E,0.246,291.26,050210,,,A*64
$GPVTG,291.26,T,,M,0.246,N,0.455,K,A*37
$GPGGA,085203.00,5355.16793,N,02730.02503,E,1,05,1.79,251.3,M,25.0,M,,*56
$GPGSA,A,3,18,21,08,26,15,,,,,,,,2.87,1.79,2.24*06
$GPGSV,3,1,12,03,67,249,31,06,71,217,19,08,07,330,19,14,07,151,*7B
$GPGSV,3,2,12,15,14,032,45,16,14,204,,18,55,073,45,19,48,295,16*7F
$GPGSV,3,3,12,21,32,087,47,22,67,156,26,24,01,085,42,26,18,130,36*75
$GPGLL,5355.16793,N,02730.02503,E,085203.00,A,A*6B
$GPRMC,085204.00,A,5355.16789,N,02730.02489,E,0.157,,050210,,,A*78
$GPVTG,,T,,M,0.157,N,0.290,K,A*2B
$GPGGA,085204.00,5355.16789,N,02730.02489,E,1,05,1.79,251.5,M,25.0,M,,*5F
$GPGSA,A,3,18,21,08,26,15,,,,,,,,2.87,1.79,2.24*06
$GPGSV,3,1,12,03,67,249,31,06,71,217,20,08,07,330,19,14,07,151,*71
$GPGSV,3,2,12,15,14,032,46,16,14,204,,18,55,073,45,19,48,295,19*73
$GPGSV,3,3,12,21,32,087,47,22,67,156,27,24,01,085,41,26,18,130,36*77
$GPGLL,5355.16789,N,02730.02489,E,085204.00,A,A*64
$GPRMC,085205.00,A,5355.16791,N,02730.02472,E,0.012,,050210,,,A*74
$GPVTG,,T,,M,0.012,N,0.022,K,A*20
$GPGGA,085205.00,5355.16791,N,02730.02472,E,1,05,1.79,251.8,M,25.0,M,,*5E
$GPGSA,A,3,18,21,08,26,15,,,,,,,,2.87,1.79,2.24*06
$GPGSV,3,1,12,03,67,249,31,06,71,217,20,08,07,330,19,14,07,151,*71
$GPGSV,3,2,12,15,14,032,46,16,14,204,,18,55,073,45,19,48,295,22*7B
$GPGSV,3,3,12,21,32,087,48,22,67,156,27,24,01,085,41,26,18,130,37*79
$GPGLL,5355.16791,N,02730.02472,E,085205.00,A,A*68
$GPRMC,085206.00,A,5355.16790,N,02730.02458,E,0.011,,050210,,,A*7D
$GPVTG,,T,,M,0.011,N,0.020,K,A*21
$GPGGA,085206.00,5355.16790,N,02730.02458,E,1,05,1.79,252.1,M,25.0,M,,*5E
$GPGSA,A,3,18,21,08,26,15,,,,,,,,2.87,1.79,2.24*06
$GPGSV,3,1,12,03,67,249,29,06,71,217,20,08,07,330,20,14,07,151,*72
$GPGSV,3,2,12,15,14,032,46,16,14,204,,18,55,073,45,19,48,295,23*7A
$GPGSV,3,3,12,21,32,087,48,22,67,156,28,24,01,085,41,26,18,130,37*76
$GPGLL,5355.16790,N,02730.02458,E,085206.00,A,A*62
$GPRMC,085207.00,A,5355.16786,N,02730.02433,E,0.034,,050210,,,A*71
$GPVTG,,T,,M,0.034,N,0.064,K,A*26
$GPGGA,085207.00,5355.16786,N,02730.02433,E,1,05,1.79,252.3,M,25.0,M,,*57
$GPGSA,A,3,18,21,08,26,15,,,,,,,,2.87,1.79,2.24*06
$GPGSV,3,1,12,03,67,249,28,06,71,217,20,08,07,330,21,14,07,151,*72
$GPGSV,3,2,12,15,14,032,46,16,14,204,,18,54,073,44,19,48,295,24*7D
$GPGSV,3,3,12,21,32,087,48,22,67,156,28,24,01,085,41,26,18,130,36*77
$GPGLL,5355.16786,N,02730.02433,E,085207.00,A,A*69
$GPRMC,085208.00,A,5355.16782,N,02730.02409,E,0.013,,050210,,,A*76
$GPVTG,,T,,M,0.013,N,0.025,K,A*26
$GPGGA,085208.00,5355.16782,N,02730.02409,E,1,05,1.79,252.5,M,25.0,M,,*53
$GPGSA,A,3,18,21,08,26,15,,,,,,,,2.87,1.79,2.24*06
$GPGSV,3,1,12,03,67,249,26,06,71,217,20,08,07,330,22,14,07,151,*7F
$GPGSV,3,2,12,15,14,032,45,16,14,204,,18,54,073,44,19,48,295,23*79
$GPGSV,3,3,12,21,32,087,48,22,67,156,28,24,01,085,41,26,18,130,36*77
$GPGLL,5355.16782,N,02730.02409,E,085208.00,A,A*6B
$GPRMC,085209.00,A,5355.16778,N,02730.02384,E,0.043,,050210,,,A*75
$GPVTG,,T,,M,0.043,N,0.080,K,A*2C
$GPGGA,085209.00,5355.16778,N,02730.02384,E,1,05,1.79,252.6,M,25.0,M,,*56
$GPGSA,A,3,18,21,08,26,15,,,,,,,,2.87,1.79,2.24*06
$GPGSV,3,1,12,03,67,249,25,06,71,217,21,08,07,330,23,14,07,151,*7C
$GPGSV,3,2,12,15,14,032,45,16,14,204,,18,54,073,44,19,48,295,23*79
$GPGSV,3,3,12,21,32,087,48,22,67,156,28,24,01,085,41,26,18,130,35*74
$GPGLL,5355.16778,N,02730.02384,E,085209.00,A,A*6D
$GPRMC,085210.00,A,5355.16774,N,02730.02353,E,0.042,,050210,,,A*7A
$GPVTG,,T,,M,0.042,N,0.079,K,A*2B
$GPGGA,085210.00,5355.16774,N,02730.02353,E,1,05,1.79,252.6,M,25.0,M,,*58
$GPGSA,A,3,18,21,08,26,15,,,,,,,,2.87,1.79,2.24*06
$GPGSV,3,1,12,03,67,249,25,06,71,217,22,08,07,330,24,14,07,151,*78
$GPGSV,3,2,12,15,14,032,44,16,14,204,,18,54,073,45,19,48,295,22*78
$GPGSV,3,3,12,21,32,087,48,22,67,156,29,24,01,085,41,26,18,130,34*74
$GPGLL,5355.16774,N,02730.02353,E,085210.00,A,A*63
$GPRMC,085211.00,A,5355.16773,N,02730.02320,E,0.024,,050210,,,A*78
$GPVTG,,T,,M,0.024,N,0.045,K,A*24
$GPGGA,085211.00,5355.16773,N,02730.02320,E,1,05,1.79,252.6,M,25.0,M,,*5A
$GPGSA,A,3,18,21,08,26,15,,,,,,,,2.87,1.79,2.24*06
$GPGSV,3,1,12,03,67,249,26,06,71,217,24,08,07,330,24,14,07,151,*7D
$GPGSV,3,2,12,15,14,032,44,16,14,204,,18,54,073,45,19,48,295,21*7B
$GPGSV,3,3,12,21,32,087,48,22,67,155,28,24,01,085,41,26,18,130,33*71
$GPGLL,5355.16773,N,02730.02320,E,085211.00,A,A*61
$GPRMC,085212.00,A,5355.16775,N,02730.02279,E,0.028,,050210,,,A*7C
$GPVTG,,T,,M,0.028,N,0.052,K,A*2E
$GPGGA,085212.00,5355.16775,N,02730.02279,E,1,05,1.79,252.6,M,25.0,M,,*52
$GPGSA,A,3,18,21,08,26,15,,,,,,,,2.87,1.79,2.24*06
$GPGSV,3,1,12,03,67,249,28,06,71,217,26,08,07,330,24,14,07,151,*71
$GPGSV,3,2,12,15,14,032,43,16,14,204,,18,54,073,44,19,48,295,20*7C
$GPGSV,3,3,12,21,32,087,48,22,67,155,28,24,01,085,41,26,18,130,32*70
$GPGLL,5355.16775,N,02730.02279,E,085212.00,A,A*69
$GPRMC,085213.00,A,5355.16779,N,02730.02245,E,0.023,,050210,,,A*75
$GPVTG,,T,,M,0.023,N,0.043,K,A*25
$GPGGA,085213.00,5355.16779,N,02730.02245,E,1,05,1.79,252.5,M,25.0,M,,*53
$GPGSA,A,3,18,21,08,26,15,,,,,,,,2.87,1.79,2.24*06
$GPGSV,3,1,12,03,67,249,29,06,71,217,27,08,07,330,25,14,07,151,*70
$GPGSV,3,2,12,15,14,032,43,16,14,204,,18,54,073,44,19,48,295,18*77
$GPGSV,3,3,12,21,32,087,48,22,67,155,27,24,01,085,41,26,18,130,30*7D
$GPGLL,5355.16779,N,02730.02245,E,085213.00,A,A*6B
$GPRMC,085214.00,A,5355.16783,N,02730.02215,E,0.083,,050210,,,A*78
$GPVTG,,T,,M,0.083,N,0.154,K,A*28
$GPGGA,085214.00,5355.16783,N,02730.02215,E,1,05,1.79,252.4,M,25.0,M,,*55
$GPGSA,A,3,18,21,08,26,15,,,,,,,,2.87,1.79,2.24*06
$GPGSV,3,1,12,03,67,249,31,06,71,217,27,08,07,330,25,14,07,151,*79
$GPGSV,3,2,12,15,14,032,43,16,14,204,,18,54,073,44,19,48,295,17*78
$GPGSV,3,3,12,21,32,087,48,22,67,155,26,24,01,085,41,26,18,130,29*74
$GPGLL,5355.16783,N,02730.02215,E,085214.00,A,A*6C
$GPRMC,085215.00,A,5355.16786,N,02730.02191,E,0.121,,050210,,,A*7A
$GPVTG,,T,,M,0.121,N,0.224,K,A*25
$GPGGA,085215.00,5355.16786,N,02730.02191,E,1,05,1.79,252.3,M,25.0,M,,*59
$GPGSA,A,3,18,21,08,26,15,,,,,,,,2.87,1.79,2.24*06
$GPGSV,3,1,12,03,67,249,31,06,71,217,27,08,07,330,25,14,07,151,*79
$GPGSV,3,2,12,15,14,032,43,16,14,204,,18,54,073,45,19,48,295,15*7B
$GPGSV,3,3,12,21,32,087,48,22,67,155,25,24,01,085,40,26,19,130,30*7F
$GPGLL,5355.16786,N,02730.02191,E,085215.00,A,A*67
$GPRMC,085216.00,A,5355.16786,N,02730.02176,E,0.225,287.75,050210,,,A*66
$GPVTG,287.75,T,,M,0.225,N,0.416,K,A*34
$GPGGA,085216.00,5355.16786,N,02730.02176,E,1,05,1.79,252.3,M,25.0,M,,*53
$GPGSA,A,3,18,21,08,26,15,,,,,,,,2.87,1.79,2.24*06
$GPGSV,3,1,12,03,67,249,31,06,71,217,26,08,07,330,26,14,07,151,*7B
$GPGSV,3,2,12,15,14,032,44,16,14,204,,18,54,073,45,19,48,295,14*7D
$GPGSV,3,3,12,21,32,087,48,22,67,155,25,24,01,085,40,26,19,130,29*77
$GPGLL,5355.16786,N,02730.02176,E,085216.00,A,A*6D
$GPRMC,085217.00,A,5355.16782,N,02730.02163,E,0.044,,050210,,,A*73
$GPVTG,,T,,M,0.044,N,0.081,K,A*2A
$GPGGA,085217.00,5355.16782,N,02730.02163,E,1,05,1.79,252.1,M,25.0,M,,*50
$GPGSA,A,3,18,21,08,26,15,,,,,,,,2.87,1.79,2.24*06
$GPGSV,3,1,12,03,67,249,30,06,71,217,26,08,07,330,26,14,07,151,*7A
$GPGSV,3,2,12,15,14,032,44,16,14,204,,18,54,073,45,19,48,295,14*7D
$GPGSV,3,3,12,21,32,087,48,22,67,155,27,24,01,085,40,26,19,130,30*7D
$GPGLL,5355.16782,N,02730.02163,E,085217.00,A,A*6C
$GPRMC,085218.00,A,5355.16776,N,02730.02149,E,0.117,,050210,,,A*78
$GPVTG,,T,,M,0.117,N,0.217,K,A*20
$GPGGA,085218.00,5355.16776,N,02730.02149,E,1,05,1.79,252.0,M,25.0,M,,*5D
$GPGSA,A,3,18,21,08,26,15,,,,,,,,2.87,1.79,2.24*06
$GPGSV,3,1,12,03,67,249,29,06,71,217,26,08,07,330,25,14,07,151,*71
$GPGSV,3,2,12,15,14,032,45,16,14,204,,18,54,073,46,19,48,295,16*7D
$GPGSV,3,3,12,21,32,087,48,22,67,155,28,24,01,085,41,26,19,130,32*71
$GPGLL,5355.16776,N,02730.02149,E,085218.00,A,A*60
$GPRMC,085219.00,A,5355.16769,N,02730.02150,E,0.075,,050210,,,A*7A
$GPVTG,,T,,M,0.075,N,0.140,K,A*24
$GPGGA,085219.00,5355.16769,N,02730.02150,E,1,05,1.79,251.9,M,25.0,M,,*50
$GPGSA,A,3,18,21,08,26,15,,,,,,,,2.87,1.79,2.24*06
$GPGSV,3,1,12,03,67,249,27,06,71,217,28,08,07,330,25,14,07,151,*71
$GPGSV,3,2,12,15,14,032,44,16,14,204,,18,54,073,46,19,48,295,17*7D
$GPGSV,3,3,12,21,32,087,47,22,67,155,29,24,01,085,41,26,19,130,33*7E
$GPGLL,5355.16769,N,02730.02150,E,085219.00,A,A*67
$GPRMC,085220.00,A,5355.16767,N,02730.02176,E,0.202,284.60,050210,,,A*6E
$GPVTG,284.60,T,,M,0.202,N,0.375,K,A*34
$GPGGA,085220.00,5355.16767,N,02730.02176,E,1,05,1.79,251.8,M,25.0,M,,*51
$GPGSA,A,3,18,21,08,26,15,,,,,,,,2.87,1.79,2.24*06
$GPGSV,3,1,12,03,67,249,25,06,71,217,28,08,07,330,25,14,07,151,*73
$GPGSV,3,2,12,15,14,032,44,16,14,204,,18,54,073,46,19,48,295,19*73
$GPGSV,3,3,12,21,32,087,47,22,67,155,30,24,01,085,41,26,19,130,34*71
$GPGLL,5355.16767,N,02730.02176,E,085220.00,A,A*67
$GPRMC,085221.00,A,5355.16769,N,02730.02199,E,0.185,,050210,,,A*7A
$GPVTG,,T,,M,0.185,N,0.342,K,A*2A
$GPGGA,085221.00,5355.16769,N,02730.02199,E,1,05,1.79,251.7,M,25.0,M,,*50
$GPGSA,A,3,18,21,08,26,15,,,,,,,,2.87,1.79,2.24*06
$GPGSV,3,1,12,03,67,249,,06,71,217,29,08,07,330,24,14,07,151,*74
$GPGSV,3,2,12,15,14,032,44,16,14,204,,18,54,073,46,19,48,295,22*7B
$GPGSV,3,3,12,21,32,087,47,22,67,155,30,24,01,085,41,26,19,130,34*71
$GPGLL,5355.16769,N,02730.02199,E,085221.00,A,A*69
$GPRMC,085222.00,A,5355.16772,N,02730.02222,E,0.030,,050210,,,A*7F
$GPVTG,,T,,M,0.030,N,0.056,K,A*23
$GPGGA,085222.00,5355.16772,N,02730.02222,E,1,05,1.79,251.6,M,25.0,M,,*5B
$GPGSA,A,3,18,21,08,26,15,,,,,,,,2.87,1.79,2.25*07
$GPGSV,3,1,12,03,67,249,,06,71,217,29,08,07,330,23,14,07,151,*73
$GPGSV,3,2,12,15,14,032,44,16,14,204,,18,54,073,46,19,48,295,23*7A
$GPGSV,3,3,12,21,32,087,47,22,67,155,30,24,01,085,42,26,19,130,35*73
$GPGLL,5355.16772,N,02730.02222,E,085222.00,A,A*63
$GPRMC,085223.00,A,5355.16779,N,02730.02263,E,0.070,,050210,,,A*74
$GPVTG,,T,,M,0.070,N,0.130,K,A*26
$GPGGA,085223.00,5355.16779,N,02730.02263,E,1,05,1.79,251.6,M,25.0,M,,*54
$GPGSA,A,3,18,21,08,26,15,,,,,,,,2.87,1.79,2.25*07
$GPGSV,3,1,12,03,67,249,,06,71,217,29,08,07,330,22,14,07,151,*72
$GPGSV,3,2,12,15,14,032,44,16,14,204,,18,54,073,46,19,48,295,24*7D
$GPGSV,3,3,12,21,32,087,47,22,67,155,29,24,01,085,42,26,19,130,36*78
$GPGLL,5355.16779,N,02730.02263,E,085223.00,A,A*6C
$GPRMC,085224.00,A,5355.16786,N,02730.02304,E,0.056,,050210,,,A*77
$GPVTG,,T,,M,0.056,N,0.104,K,A*25
$GPGGA,085224.00,5355.16786,N,02730.02304,E,1,05,1.79,251.7,M,25.0,M,,*52
$GPGSA,A,3,18,21,08,26,15,,,,,,,,2.87,1.79,2.25*07
$GPGSV,3,1,12,03,67,249,,06,71,217,29,08,07,330,21,14,07,151,*71
$GPGSV,3,2,12,15,14,032,45,16,14,204,,18,54,073,46,19,48,295,24*7C
$GPGSV,3,3,12,21,32,087,47,22,67,155,28,24,01,085,42,26,19,130,36*79
$GPGLL,5355.16786,N,02730.02304,E,085224.00,A,A*6B
$GPRMC,085225.00,A,5355.16792,N,02730.02342,E,0.030,,050210,,,A*71
$GPVTG,,T,,M,0.030,N,0.056,K,A*23
$GPGGA,085225.00,5355.16792,N,02730.02342,E,1,05,1.79,251.7,M,25.0,M,,*54
$GPGSA,A,3,18,21,08,26,15,,,,,,,,2.87,1.79,2.25*07
$GPGSV,3,1,12,03,67,249,,06,71,217,29,08,07,330,21,14,07,151,*71
$GPGSV,3,2,12,15,14,032,45,16,14,204,,18,54,073,45,19,48,295,23*78
$GPGSV,3,3,12,21,32,087,47,22,67,155,28,24,01,085,42,26,19,130,36*79
$GPGLL,5355.16792,N,02730.02342,E,085225.00,A,A*6D
$GPRMC,085226.00,A,5355.16796,N,02730.02376,E,0.021,,050210,,,A*71
$GPVTG,,T,,M,0.021,N,0.039,K,A*2A
$GPGGA,085226.00,5355.16796,N,02730.02376,E,1,05,1.79,251.7,M,25.0,M,,*54
$GPGSA,A,3,18,21,08,26,15,,,,,,,,2.87,1.79,2.25*07
$GPGSV,3,1,12,03,67,249,,06,71,217,28,08,07,330,20,14,07,151,*71
$GPGSV,3,2,12,15,14,032,45,16,14,204,,18,54,073,45,19,48,295,23*78
$GPGSV,3,3,12,21,32,087,47,22,67,155,28,24,01,085,42,26,19,130,36*79
$GPGLL,5355.16796,N,02730.02376,E,085226.00,A,A*6D
$GPRMC,085227.00,A,5355.16801,N,02730.02416,E,0.171,,050210,,,A*74
$GPVTG,,T,,M,0.171,N,0.316,K,A*20
$GPGGA,085227.00,5355.16801,N,02730.02416,E,1,05,1.79,251.8,M,25.0,M,,*5A
$GPGSA,A,3,18,21,08,26,15,,,,,,,,2.87,1.79,2.25*07
$GPGSV,3,1,12,03,67,249,,06,71,217,27,08,07,330,19,14,07,151,*74
$GPGSV,3,2,12,15,14,032,46,16,14,204,,18,54,073,45,19,48,295,22*7A
$GPGSV,3,3,12,21,32,087,47,22,67,155,28,24,01,085,43,26,19,130,36*78
$GPGLL,5355.16801,N,02730.02416,E,085227.00,A,A*6C
$GPRMC,085228.00,A,5355.16808,N,02730.02459,E,0.320,281.81,050210,,,A*63
$GPVTG,281.81,T,,M,0.320,N,0.594,K,A*36
$GPGGA,085228.00,5355.16808,N,02730.02459,E,1,05,1.79,251.9,M,25.0,M,,*56
$GPGSA,A,3,18,21,08,26,15,,,,,,,,2.87,1.79,2.25*07
$GPGSV,3,1,12,03,67,249,27,06,71,217,25,08,07,330,16,14,07,151,*7C
$GPGSV,3,2,12,15,14,032,46,16,14,204,,18,54,073,45,19,48,295,21*79
$GPGSV,3,3,12,21,32,087,47,22,67,155,28,24,01,085,43,26,19,130,36*78
$GPGLL,5355.16808,N,02730.02459,E,085228.00,A,A*61
$GPRMC,085229.00,A,5355.16810,N,02730.02492,E,0.147,,050210,,,A*73
$GPVTG,,T,,M,0.147,N,0.272,K,A*26
$GPGGA,085229.00,5355.16810,N,02730.02492,E,1,05,1.79,251.9,M,25.0,M,,*59
$GPGSA,A,3,18,21,08,26,15,,,,,,,,2.87,1.79,2.25*07
$GPGSV,3,1,12,03,67,249,26,06,71,217,24,08,07,330,14,14,07,151,*7E
$GPGSV,3,2,12,15,14,032,46,16,14,204,,18,54,073,46,19,48,295,21*7A
$GPGSV,3,3,12,21,32,087,46,22,67,155,28,24,01,085,43,26,19,130,35*7A
$GPGLL,5355.16810,N,02730.02492,E,085229.00,A,A*6E
$GPRMC,085230.00,A,5355.16812,N,02730.02521,E,0.044,,050210,,,A*72
$GPVTG,,T,,M,0.044,N,0.082,K,A*29
$GPGGA,085230.00,5355.16812,N,02730.02521,E,1,05,1.79,251.9,M,25.0,M,,*5A
$GPGSA,A,3,18,21,08,26,15,,,,,,,,2.87,1.79,2.25*07
$GPGSV,3,1,12,03,67,249,26,06,71,217,22,08,07,330,14,14,07,151,*78
$GPGSV,3,2,12,15,14,032,46,16,14,204,,18,54,073,46,19,48,295,20*7B
$GPGSV,3,3,12,21,32,087,47,22,67,155,29,24,01,085,43,26,19,130,35*7A
$GPGLL,5355.16812,N,02730.02521,E,085230.00,A,A*6D
$GPRMC,085231.00,A,5355.16815,N,02730.02548,E,0.041,,050210,,,A*7E
$GPVTG,,T,,M,0.041,N,0.075,K,A*24
$GPGGA,085231.00,5355.16815,N,02730.02548,E,1,05,1.79,251.9,M,25.0,M,,*53
$GPGSA,A,3,18,21,08,26,15,,,,,,,,2.87,1.79,2.25*07
$GPGSV,3,1,12,03,67,249,27,06,71,217,21,08,07,330,15,14,07,151,*7B
$GPGSV,3,2,12,15,14,032,46,16,14,204,,18,54,073,46,19,48,295,21*7A
$GPGSV,3,3,12,21,32,087,47,22,67,155,28,24,01,085,43,26,19,130,35*7B
$GPGLL,5355.16815,N,02730.02548,E,085231.00,A,A*64
$GPRMC,085232.00,A,5355.16819,N,02730.02581,E,0.118,,050210,,,A*79
$GPVTG,,T,,M,0.118,N,0.219,K,A*21
$GPGGA,085232.00,5355.16819,N,02730.02581,E,1,05,1.79,251.9,M,25.0,M,,*59
$GPGSA,A,3,18,21,08,26,15,,,,,,,,2.87,1.79,2.25*07
$GPGSV,3,1,12,03,67,249,27,06,71,217,21,08,07,330,16,14,07,151,*78
$GPGSV,3,2,12,15,14,032,46,16,14,204,,18,54,073,46,19,48,295,21*7A
$GPGSV,3,3,12,21,32,087,47,22,67,155,28,24,01,085,43,26,19,130,35*7B
$GPGLL,5355.16819,N,02730.02581,E,085232.00,A,A*6E
$GPRMC,085233.00,A,5355.16819,N,02730.02601,E,0.007,,050210,,,A*7C
$GPVTG,,T,,M,0.007,N,0.012,K,A*27
$GPGGA,085233.00,5355.16819,N,02730.02601,E,1,05,1.79,251.8,M,25.0,M,,*52
$GPGSA,A,3,18,21,08,26,15,,,,,,,,2.87,1.79,2.25*07
$GPGSV,3,1,12,03,67,249,27,06,71,217,21,08,07,330,18,14,07,151,*76
$GPGSV,3,2,12,15,14,032,46,16,14,204,,18,54,073,46,19,48,295,22*79
$GPGSV,3,3,12,21,32,087,47,22,67,155,27,24,01,085,42,26,19,130,34*74
